tipo,nombre,latitud,longitud,región,comuna,fecha apertura,operativo,mineral,tipo generación,socios
2,"SolarEdge Technologies, Inc.",-40.61124533,-71.9763994,Metropolitana de Santiago,Padre Hurtado,18-01-2012,si,-,nuclear,"G:emma Betolaza,Marta Paunero"
2,Azul S.A.,-38.3712225,-72.54586882,VII del Maule,Curanilahue,08-02-1963,si,-,geotérmica,"Raul Ortiz,Elena Tricio,Rosario Pisabarro,Cristobal Parra"
1,Franke,-46.57220413,-70.5754899,II de Antofagasta,Calama,09-04-2016,si,Cobre,-,"Ahmed Bernal,Amelia Nodal,Ibon Salguero"
3,AdvisorShares Market Adaptive Unconstrained Income ETF,-19.48757504,-73.46582409,XI de Aysén del General Carlos Ibañez del Campo,Chile Chico,06-10-1992,si,-,-,"Luis Angel Mata,Alba Maria Rodellar,Eleuterio Gordillo,Luisa Jaramago,Placido Mejias"
2,Kilroy Realty Corporation,-45.98246139,-71.80516601,III de Atacama,Huasco,16-09-1962,si,-,geotérmica,"Victoriano Salazar,Aicha Mecinas,Amina Coego,Carmelo Macias"
2,Anheuser-Busch Inbev SA,-53.79350998,-69.22893626,II de Antofagasta,Antofagasta,23-05-1977,si,-,termoeléctrica,"Pedro Jose Luque,Ana Belen El Hayani,Adrian Rubio,Khadija Contijoch,Luis Antonio Escribano"
3,Clifton Bancorp Inc.,-46.1348098,-73.54064138,V de Valparaíso,Valparaíso,26-02-1952,si,-,-,"Maria Guadalupe Hammouch,Pascual Guerra,Saturnina De Frias,Pedro Jose Luque"
1,San Gerónimo,-50.93885489,-71.78372396,IV de Coquimbo,La Higuera,08-10-2018,si,Cobre,-,"Norberto Galvan,Gonzalo Nieto,Maria Purificacion Bures,Abel Mendoza"
1,Elenita,-51.48257045,-69.73756147,II de Antofagasta,Ollagüe,16-12-1997,si,Cobre,-,"Narciso Ballester,Magdalena Chahlal,Petra Aomar,Jairo Villa"
1,Catamutún,-38.22877545,-74.53154567,XIV de Los Ríos,Río Bueno,10-04-2017,si,Carbón,-,"Jacinto Bermudez,Lorenza Lizundia,Juan Dios Clemente"
3,United States Cellular Corporation,-46.84178722,-72.6409599,IV de Coquimbo,La Serena,05-02-1993,si,-,-,"Ali Linares,Juan Bautista Paredes,Maria Blanca Tarrats,Hamid Sole"
1,San José,-17.08866568,-70.75499991,III de Atacama,Vallenar,28-05-1982,si,Cobre,-,"Maria Jesus Amezua,Luis Francisco Carvajal,Jesus Martin"
1,Isla Guarello,-44.52950651,-74.49207624,XII de Magallanes y de la Antártica Chilena,Punta Arenas,28-02-1970,si,Caliza,-,"Placido Mejias,Francisco Miguel Castellano,Maria Juana Mallor,Nestor Da Silva"
1,Las Arenitas,-37.93703952,-73.48497148,VII del Maule,Curanilahue,25-09-1972,si,Arenas Silíceas,-,"Lucas Rey,Maria Josefa Justes,Arturo Izquierdo,Jessica Reinado,Josue Marques"
2,Park-Ohio Holdings Corp.,-41.85811607,-72.68224325,IV de Coquimbo,Monte Patria,12-05-2002,si,-,nuclear,"Pere Quintana,Benedicta Gil Ortega,Lucio Cabezas,Maximiliano Amaya"
3,The Community Financial Corporation,-30.33028141,-74.2415504,Metropolitana de Santiago,Isla de Maipo,07-03-1968,si,-,-,"Izan Juan,Elvira Veredas"
2,"National American University Holdings, Inc.",-44.82845024,-69.71109939,II de Antofagasta,María Elena,27-02-1959,si,-,geotérmica,"Juan Jose Blanco,Rosa Rosino,Alex Espinosa,Jenifer Valmaña,Guillermo Campos"
2,Garrison Capital Inc.,-42.09990962,-69.28519278,II de Antofagasta,Antofagasta,06-09-1955,si,-,nuclear,"Mauricio Coll,Maria Alicia Matache,Rosendo Duque,Maria Mercedes Mahedero"
3,Array BioPharma Inc.,-34.8282871,-69.65815707,II de Antofagasta,Taltal,22-12-2006,si,-,-,"Augusto Tena,Florencia Corchon,Maria Purificacion Bures,Robert Juarez"
3,Unisys Corporation,-31.55130785,-68.11280481,I de Tarapacá,Huara,24-04-1976,si,-,-,"Izan Juan,Maria Cruz Miteva,Juan Pedro Robles,Beatriz Escarra,Jose Javier Silva"
2,PureFunds ETFx HealthTech ETF,-18.30750076,-68.71016001,II de Antofagasta,Tocopilla,11-09-2016,si,-,solar,"Stefan Bello,Benita Fontanillo,Maria Sonia Ferguson"
2,"Dynex Capital, Inc.",-46.6250247,-71.20320602,II de Antofagasta,Calama,01-03-1957,si,-,solar,"Jose Rafael Sainz,Valentin Rivas"
3,Walter Investment Management Corp.,-53.36045872,-71.65370501,III de Atacama,Copiapó,03-09-2012,si,-,-,"Maria Magdalena Tayebi,Jose Eduardo Piñero,Helena Gabirondo,Marcelino Miranda"
2,"Avon Products, Inc.",-42.74645755,-71.60494713,II de Antofagasta,Tocopilla,16-02-1978,si,-,solar,"Juan Manuel Garrido,Jorge Gil"
2,"Clear Channel Outdoor Holdings, Inc.",-21.93420356,-71.74937316,V de Valparaíso,Quilpué,26-01-1989,si,-,hidroeléctrica,"Juan Pedro Robles,Amaya Liriano,Belen Gosende,Roberto Carlos Pino"
3,EQT Corporation,-24.4253265,-71.77113902,III de Atacama,Vallenar,19-08-1985,si,-,-,"Alex Espinosa,Irina Noain,Abelardo Araujo,Felisa Singla,Ramon Suarez"
1,SQM - Mapocho,-31.96469031,-69.29279809,I de Tarapacá,Huara,08-06-1962,si,Yodo,-,"Eloy Aparicio,Maria Jesus Amezua,Pelayo Pazos,Edurne Pica,Mariano Pascual"
1,Las Cenizas,-37.70085343,-73.56228633,V de Valparaíso,Concón,23-02-1977,si,Cobre,-,"Jose Alberto Estevez,Maria Dolors Rina,Alexandre Aragon,Maria Rosa Montala,Cesar Arias"
3,"Sportsman's Warehouse Holdings, Inc.",-46.2616331,-71.64164013,III de Atacama,Huasco,30-03-1990,si,-,-,"Isidora Fabero,Luis Miguel Saez,Maria Almudena Anderez,Arturo Izquierdo"
2,"Xenia Hotels & Resorts, Inc.",-51.796099,-72.47764133,IV de Coquimbo,La Higuera,20-03-2002,si,-,termoeléctrica,"Juan Jose Blanco,Augusto Tena,Consolacion Recouso,Fidel Puig"
3,Lions Gate Entertainment Corporation,-27.10631744,-70.2652307,III de Atacama,Diego de Almagro,15-10-1994,si,-,-,"Angel Luis Trujillo,Natividad Carabaño,Emilio Leon,Angustias Lavara,Juan Manuel Garrido"
1,Inacesa - El Jilguero,-17.44733374,-70.47032369,III de Atacama,Huasco,12-09-1958,si,Caliza,-,"Maria Laura Reula,Luis Fernando Ballesteros,Pedro Antonio Miguel"
1,Don Alberto,-32.66658139,-73.34546353,IV de Coquimbo,Río Hurtado,11-05-1979,si,Oro,-,"Michael Belmonte,Raquel Cavadas,German Camacho,Maria Amparo Anguix,Bernardo Vila"
1,Michilla,-27.48280116,-70.56344947,II de Antofagasta,Mejillones,03-02-1956,si,Cobre,-,"Luis Eduardo Hervas,Rosalia Izal,Alex Espinosa,Joana Ganzo"
3,Marine Petroleum Trust,-30.37095291,-69.93180455,II de Antofagasta,Ollagüe,28-04-2019,si,-,-,"Maria Antonia Niculescu,Jose Jesus Chaves,Elsa Puges,Arnau Cuesta"
1,Tuina,-45.29357894,-69.17026643,II de Antofagasta,María Elena,13-12-2007,si,Cobre,-,"Andreu Domenech,Silvia Dobrev,Andoni Lago,Carlos Antonio Salcedo"
1,Intracampos,-49.82821022,-74.30242654,XII de Magallanes y de la Antártica Chilena,Primavera,16-02-1979,si,Hidrocarburos,-,"Candida Schulze,Hector Soto,Maria Cinta Akhrif"
3,Westpac Banking Corporation,-31.50027707,-69.55187546,II de Antofagasta,Calama,10-03-1974,si,-,-,"Jose Alberto Estevez,Maximino Segovia,Georgina Casatejada,Jesus Antonio Herranz"
2,"Silicon Laboratories, Inc.",-38.8201632,-70.50291327,IV de Coquimbo,Salamanca,07-04-2019,si,-,termoeléctrica,"Joseba Palma,Maria Soledad Maresma,Federico Bueno,Patricia Baumann,Enric Collado"
2,E*TRADE Financial Corporation,-17.69804781,-70.47765396,III de Atacama,Vallenar,29-04-1990,si,-,hidroeléctrica,"Erik Zapata,Luciano Galindo,Carlota Dobra,Juan Gabriel Ferrero"
2,Toll Brothers Inc.,-25.45210144,-74.98904326,VII del Maule,Los Álamos,05-06-1950,si,-,nuclear,"Enrique Molina,Jose Tomas Bonet,Maria Angela Miraz,Jaime Guerrero"
1,CMP - Boquerón Chañar,-37.4788188,-71.47867599,III de Atacama,Caldera,13-12-1982,si,Hierro,-,"Isaias Olmo,Irina Noain"
1,Peckett,-38.13105043,-72.83364805,XII de Magallanes y de la Antártica Chilena,Cabo de Hornos,03-11-1953,si,Carbón,-,"Cristian Hidalgo,Paulino Amador,Maria Julia Mariñelarena"
3,SL Green Realty Corporation,-23.08275252,-69.42137751,I de Tarapacá,Iquique,29-05-1987,si,-,-,"Mario Gallego,Micaela Eriksson,Dario Santamaria,Gema Gallent,Juan Pedro Robles"
2,"Chunghwa Telecom Co., Ltd.",-16.07171874,-71.26601916,II de Antofagasta,Taltal,13-11-1959,si,-,nuclear,"Ayoub Moyano,Norberto Galvan"
2,"Forterra, Inc.",-40.07139215,-70.8392399,II de Antofagasta,San Pedro de Atacama,16-10-2015,si,-,termoeléctrica,"Abraham Alba,Rita Quilumba,Hassan Ferreira,Maria Eugenia Corado"
1,Refugio,-38.87962997,-71.56971803,III de Atacama,Diego de Almagro,14-01-1979,si,Oro,-,"Juan Ignacio Simon,Myriam Lires,Ricard Castilla,Martina Castañar"
3,"China Lodging Group, Limited",-30.82234614,-68.38792591,I de Tarapacá,Huara,21-09-1950,si,-,-,"Salud Mollo,Alex Espinosa,Maximino Segovia"
2,"International Seaways, Inc.",-24.39457601,-72.24669649,XIV de Los Ríos,Panguipulli,29-08-2010,si,-,mareomotriz,"Antonio Manuel Mateo,Josefina Serral,Jose Rafael Sainz,Abdelaziz Velez"
2,"Financial Engines, Inc.",-46.38747254,-70.75437214,I de Tarapacá,Camiña,18-06-1979,si,-,hidroeléctrica,"Florin Grau,Nicolasa Casto,Guillermo Campos,Maria Beatriz Boutahar"
3,Nuveen Connecticut Quality Municipal Income Fund,-50.96642298,-70.49199065,III de Atacama,Tierra Amarilla,29-05-1955,si,-,-,"Maria Mar Chelaru,Lola Sellers,Constantin Andreu"
1,La Coipa,-27.59189821,-71.20349032,III de Atacama,Diego de Almagro,11-02-1970,si,Oro,-,"Ignasi Rosales,Florencia Corchon,Maria Magdalena Tayebi,Marc Aguilar"
1,Dorado,-28.39381633,-73.986472,XII de Magallanes y de la Antártica Chilena,San Gregorio,15-12-1953,si,Hidrocarburos,-,"Inocencio Llorens,Estibaliz Pozon,Aziz Garzon,Maria Alicia Matache"
2,Mackinac Financial Corporation,-43.64479261,-73.81374064,IV de Coquimbo,Ovalle,06-11-1988,si,-,solar,"Roberto Carlos Pino,Maria Cinta Akhrif,Jose Andres Asensio,Dolores Oyanguren,Saul Saiz"
3,"Cogentix Medical, Inc.",-19.95010196,-73.64662812,Metropolitana de Santiago,María Pinto,24-04-1975,si,-,-,"Iker Pardo,Israel Escudero"
1,Cerro Colorado,-24.2080116,-68.50685053,I de Tarapacá,Pica,14-09-1955,si,Cobre,-,"Laia Tortella,Gorka Martos,Emiliana Gil De Gomez"
2,Dynatronics Corporation,-18.63187163,-72.91612967,VIII del Bío-Bío,Santa Bárbara,01-05-1964,si,-,termoeléctrica,"Aziz Garzon,Joaquina Del Jesus,Guillermo Campos,Eusebia Reines,Josep Lorenzo"
3,R.R. Donnelley & Sons Company,-29.11125862,-71.23158585,II de Antofagasta,María Elena,26-04-1966,si,-,-,"Maria Paloma Haddu,Esther Chaos,Hector Soto"
1,Trongol,-29.59632621,-73.03948187,VIII del Bío-Bío,Yumbel,21-06-2004,si,Carbón,-,"Francisco Asis Portillo,Antonio Javier Toledo,Esther Chaos"
2,"FTI Consulting, Inc.",-47.14991504,-71.68093803,IV de Coquimbo,Combarbalá,10-12-1996,si,-,geotérmica,"Armando Valverde,Coral Mesbahi,Ane De Jong,Cecilio Sanchis"
1,Inacesa - El Way,-35.29287156,-71.086893,II de Antofagasta,Antofagasta,03-09-1974,si,Caliza,-,"Laureano Bosch,Benjamin Salas,Paulina Dorobantu,Valentin Rivas"
3,"RiverNorth Opportunities Fund, Inc.",-31.26504384,-68.84962811,II de Antofagasta,Taltal,21-05-2017,si,-,-,"Eulogio Granados,Erica Coruña,Nicolae Carballo,Juan Carlos Serrano"
3,AmerisourceBergen Corporation (Holding Co),-51.24200404,-70.28150702,I de Tarapacá,Colchane,14-06-2004,si,-,-,"Marc Aguilar,Aritz Cervera,Omar Abad"
2,"Evolving Systems, Inc.",-52.14362392,-72.16782523,IV de Coquimbo,Andacollo,21-01-1991,si,-,hidroeléctrica,"Imanol Cantero,Maria Juana Mallor,Maria Gloria Inguanzo,Felipe Vicente"
2,"UMH Properties, Inc.",-42.64166805,-69.65466815,II de Antofagasta,San Pedro de Atacama,09-12-1971,si,-,termoeléctrica,"Adrian Rubio,Ramiro Navas,Alfonsa Relloso,Ruben Medina"
1,Arenal,-17.15562623,-72.95433214,XII de Magallanes y de la Antártica Chilena,Porvenir,20-04-2013,si,Hidrocarburos,-,"Samuel Benitez,Amelia Nodal,Lucas Rey"
2,Suncor EnergyInc.,-53.43772961,-72.02622649,III de Atacama,Freirina,18-09-1983,si,-,solar,"Maria Valle De La Huerga,Rafaela Mitu,Alexander Bautista"
2,Elkhorn Commodity Rotation Strategy ETF,-23.69506956,-69.47807235,I de Tarapacá,Iquique,02-08-1989,si,-,hidroeléctrica,"Fabio Ariza,Noel Paniagua"
1,La Patagua,-23.56366992,-72.74754506,V de Valparaíso,Juan Fernández,07-11-1990,si,Cobre,-,"Eleuterio Gordillo,Maria Araceli Yuan,Natividad Carabaño"
2,Terreno Realty Corporation,-51.05668234,-69.94491088,I de Tarapacá,Colchane,26-11-1995,si,-,termoeléctrica,"Pere Quintana,Paulina Dorobantu,Maria Encarnacion Bahri,Antonio Manuel Mateo"
2,"CenterPoint Energy, Inc.",-27.46471657,-71.45300923,II de Antofagasta,Mejillones,08-06-1982,si,-,mareomotriz,"Miguel Diaz,Maria Amparo Anguix,Ezequiel Correa,Cristina Macipe,Carles Guzman"
2,Enel Generacion Chile S.A.,-29.99809319,-73.58981351,V de Valparaíso,Quintero,20-10-1957,si,-,termoeléctrica,"Valentin Rivas,Irene Herrmann,Juan Antonio Ortega,Sagrario Hungria,Ian Alcantara"
2,"Edge Therapeutics, Inc.",-42.71445035,-70.47732534,II de Antofagasta,Mejillones,31-03-1967,si,-,mareomotriz,"Iker Pardo,Feliciana Buide,Ander Cuevas,Maria Trinidad Lup,Amadeo Latorre"
3,"Under Armour, Inc.",-37.56572452,-72.73158473,III de Atacama,Caldera,25-05-2007,si,-,-,"Aurelia Foguet,Fidel Puig"
1,El Volcán,-30.31364111,-73.4247602,Metropolitana de Santiago,Isla de Maipo,24-03-1960,si,Yeso,-,"Estibaliz Pozon,Arnau Cuesta,Maria Nuria Silio,Anselmo Pujol"
1,El Soldado,-21.53551614,-72.07976852,V de Valparaíso,Quilpué,16-04-2004,si,Cobre,-,"Adrian Rubio,Maria Concepcion Avellana"
2,KT Corporation,-17.99072303,-73.16470936,Metropolitana de Santiago,Talagante,12-02-1956,si,-,termoeléctrica,"Alexander Bautista,Adelaida Garcete,Celso Falcon,Jenifer Valmaña,Hamza Barrio"
1,ACF - Lagunas,-33.13604943,-69.34122626,I de Tarapacá,Huara,05-09-1957,si,Yodo,-,"John Rebollo,Sandra Maria Esteruelas,Jose Emilio Poveda,Carla Golderos,Santiago Santos"
3,"First Hawaiian, Inc.",-37.35857076,-71.31032115,III de Atacama,Caldera,11-10-1987,si,-,-,"Kevin De La Fuente,Emma Gegundez,Diana Matanza,Francesc Guillen"
3,Randgold Resources Limited,-48.17720516,-73.38634755,Metropolitana de Santiago,El Monte,30-10-1971,si,-,-,"Yago Alfaro,Soledad Benimeli,Ana Maria Bartomeu,Santiago Santos"
1,III de Atacama Minerals - Aguas Blancas,-47.31394603,-71.23903468,II de Antofagasta,Sierra Gorda,19-11-1998,si,"Yodo,Nitratos",-,"Milagros Acuyo,Aziz Garzon"
2,Urstadt Biddle Properties Inc.,-47.18797047,-73.54860045,VII del Maule,Contulmo,16-07-1994,si,-,solar,"Placido Mejias,Lorena Saad,Herminia Zahino,Antonio Jose Franco"
1,Chimberos,-19.29980419,-70.51275141,III de Atacama,Chañaral,01-01-2016,si,Oro,-,"Andoni Lago,Petra Aomar"
3,"JA Solar Holdings, Co., Ltd.",-38.70897824,-69.63632309,III de Atacama,Caldera,05-10-2017,si,-,-,"Elsa Puges,Vicent Valles,Myriam Lires,Bartolome Mateos"
1,CMP - Algarrobo,-30.07242537,-71.8258599,III de Atacama,Alto del Carmen,30-05-1995,si,Hierro,-,"Jose Eduardo Piñero,Maria Fernanda Villasuso,Diego Morales,Maria Rosario Torrubiano,Segundo Marrero"
2,"Idera Pharmaceuticals, Inc.",-23.89837221,-68.22308586,I de Tarapacá,Pica,07-01-2008,si,-,geotérmica,"Damian Valle,Hilario Ayala,Regina Blaj,Ionel Agudo"
1,Montecristo,-42.76191411,-71.15455864,II de Antofagasta,Antofagasta,08-06-1961,si,Cobre,-,"Emilio Jose Caro,Gloria Cidre,Ignacio Prieto,Maria Magdalena Tayebi"
3,Special Opportunities Fund Inc.,-22.69430514,-71.58466488,V de Valparaíso,Quilpué,09-09-1968,si,-,-,"Luis Javier Carbonell,Anabel Rodriguez Peral,Manuel Antonio Reina,Matilde Linacero,Amador Soria"
2,AGCO Corporation,-51.31250495,-72.09715256,III de Atacama,Copiapó,23-04-1963,si,-,nuclear,"Josu Arranz,Presentacion Pereñiguez,Augusto Tena"
1,Lenga,-19.85382799,-74.1091388,XII de Magallanes y de la Antártica Chilena,Natales,14-07-1980,si,Hidrocarburos,-,"Michael Belmonte,Maria Fernanda Villasuso,Isidoro Pons"
1,Julia,-30.42536025,-70.20419998,II de Antofagasta,María Elena,23-04-1966,si,Cobre,-,"Jose Angel Carmona,Lorena Saad,Pol Costa,Silvia Dobrev"
2,"NextEra Energy, Inc.",-29.20278204,-73.96821118,VIII del Bío-Bío,Yumbel,06-04-1971,si,-,geotérmica,"Lourdes Menguiano,Jose Miguel Diez,Francisca Caelles"
3,"Diamond Hill Investment Group, Inc.",-49.85799239,-72.76516535,XII de Magallanes y de la Antártica Chilena,Laguna Blanca,25-04-1999,si,-,-,"Octavio Tapia,Aina Martin Delgado,Laureano Bosch,Manuel Francisco Del Valle"
2,Jazz Pharmaceuticals plc,-23.34368456,-71.94105884,IV de Coquimbo,Punitaqui,08-12-2004,si,-,mareomotriz,"Almudena Canes,Anselmo Pujol,Mohamed Caballero"
1,Laguna Siren,-24.11799631,-69.35044973,I de Tarapacá,Iquique,30-04-1986,si,Diatomitas,-,"Gerardo Exposito,Palmira Ruales,Ana Maria Bartomeu,Ismael Herrero"
2,"Universal Stainless & Alloy Products, Inc.",-47.36444382,-73.38158073,VII del Maule,Cañete,22-01-1958,si,-,termoeléctrica,"Celso Falcon,Mariam Corrons,Luis Manuel Lorente,Coral Mesbahi"
1,Alhué,-41.28151908,-72.89936633,Metropolitana de Santiago,Padre Hurtado,27-04-1977,si,"Oro,Cinc",-,"Ursula Xiao,Joaquim Paz,Rufino Rosa"
2,United Insurance Holdings Corp.,-23.96324697,-68.69023905,I de Tarapacá,Iquique,18-10-2011,si,-,mareomotriz,"Saul Saiz,Rosa Rosino,Inocencio Llorens"
1,Chuquicamata,-29.63681473,-69.07867499,II de Antofagasta,Taltal,21-12-1963,si,Cobre,-,"Pol Costa,Azucena Ould Mohamed,Pedro Jose Luque,Minerva Pagazaurtundua,Igor Hernando"
1,Maganeso III de Atacama,-32.76774456,-72.94945547,IV de Coquimbo,Los Vilos,28-02-1954,si,Manganeso,-,Roque Borrego
1,SCL Chemetall,-47.20950153,-70.76035423,II de Antofagasta,María Elena,15-08-1964,si,Litio,-,"Monica Holt,Enric Collado,Clara Nouri,Oier Romera"
3,Galectin Therapeutics Inc.,-54.87199607,-70.54691361,II de Antofagasta,Taltal,01-03-2017,si,-,-,"Joel Contreras,Debora Cerron,Jesus Maria Rivera,Jose Gonzalez"
3,Yelp Inc.,-43.11047715,-70.03352768,I de Tarapacá,Pica,24-06-1977,si,-,-,"Hamid Sole,Ainara De Luz,Pascual Guerra"
2,China Mobile (Hong Kong) Ltd.,-32.31321107,-69.75707645,II de Antofagasta,Calama,21-06-1976,si,-,mareomotriz,"German Camacho,Ane De Jong,Jesus Angel Lucas,Abraham Alba"
1,Pirquitas,-38.73928048,-69.3541644,XV de Arica y Parinacota,Arica,06-04-2000,si,"Oro,Plata,Cobre",-,"Higinio Dorado,Elizabeth Truchado"
1,Collahuasi,-43.76417517,-69.46927861,I de Tarapacá,Pica,22-08-2003,si,Cobre,-,"Casimiro Vergara,Cristina Maria Vilana,Juan Andres Saavedra,Gertrudis Zanfir,Norberto Galvan"
2,Central Garden & Pet Company,-33.00192116,-73.80536773,IV de Coquimbo,Los Vilos,27-10-1962,si,-,hidroeléctrica,"Ascension Bratos,Jon Casas,Mariam Corrons,Modesto Polo"
1,Faride,-30.49406062,-70.09795413,II de Antofagasta,Taltal,07-06-1997,si,Cobre,-,"Ernesto Valero,Maria Belen Ruesgas,Sonia Goiburu,Juan Ramon Soriano"
1,María Elisa,-46.67054079,-72.97304111,VII del Maule,Contulmo,03-03-1997,si,Pumicita,-,"Celso Falcon,Luisa Maria Bando,Manuel Jose Cardenas,Montserrat Noel,Jaime Guerrero"
3,HollyFrontier Corporation,-39.14820194,-72.40334635,IV de Coquimbo,Paiguano,22-11-1983,si,-,-,"Christian Palacios,Liliana Azon,Manuel Jose Cardenas,Segundo Marrero"
3,"Recon Technology, Ltd.",-41.59030839,-69.17650406,II de Antofagasta,Antofagasta,09-11-1952,si,-,-,"Antonio Javier Toledo,Basilisa Azam,Delia Ayuda,Jose Manuel Alvarez"
3,JM Global Holding Company,-46.43036646,-71.41331194,II de Antofagasta,Calama,13-02-1957,si,-,-,"Bernardo Vila,Carlota Dobra,Iker Pardo,Violeta Atxa"
1,Del Fierro,-46.58411776,-73.65920956,VII del Maule,Cañete,01-08-2003,si,Caliza,-,"Diana Matanza,Octavio Tapia,Amalia Diaz Hellin,Jorge Gil"
3,"Hub Group, Inc.",-41.73703364,-71.12153259,II de Antofagasta,Mejillones,02-08-1994,si,-,-,"Kevin De La Fuente,Jana Casafont,Angel Luis Trujillo,Trinidad Aedo,Adria Mesa"
1,Manantial,-45.37989704,-69.54898275,XV de Arica y Parinacota,Camarones,17-11-1957,si,Diatomitas,-,"Francisco Javier Jimenez,Lucia Peula,Alfredo Ibañez,Flora Tsvetkov,Ahmed Bernal"
2,Credit Acceptance Corporation,-31.38911698,-69.24544403,II de Antofagasta,Taltal,02-06-1965,si,-,termoeléctrica,"Roberto Carlos Pino,Minerva Pagazaurtundua,Gheorghe Quesada,Iris Rostoll,Constantin Andreu"
3,Nuveen AMT-Free Municipal Value Fund,-22.33954425,-71.6613863,III de Atacama,Huasco,18-11-2004,si,-,-,"Gustavo Adolfo Brito,Rachida Evangelio,Bartolome Mateos,Benita Fontanillo,Primitivo Serna"
2,"Mirna Therapeutics, Inc.",-34.44832831,-73.48296944,XII de Magallanes y de la Antártica Chilena,Timaukel,23-07-1978,si,-,mareomotriz,"Antonio Manuel Mateo,Basilio Requena,Josefina Serral,Jose Pablo Saenz"
2,"Kura Oncology, Inc.",-25.22791263,-71.84278768,VI del Libertador General Bernardo O'Higgins,Codegua,26-12-1956,si,-,hidroeléctrica,"Marcial Pinto,Edgar Leal,Esther Chaos"
2,First Trust Senior Loan Fund ETF,-45.77912208,-70.46570244,XV de Arica y Parinacota,Camarones,13-07-1986,si,-,solar,"Victoriano Salazar,Luisa Jaramago,Antia Grado,Alexandru Campo"
3,"Ulta Beauty, Inc.",-24.78193519,-69.05397424,I de Tarapacá,Pica,04-09-1985,si,-,-,"Ali Linares,Karima Coin,Leonardo Corral,Felisa Singla,Rodolfo Becerra"
2,Comcast Corporation,-23.3210794,-69.03344193,I de Tarapacá,Pica,21-01-1999,si,-,geotérmica,"Brahim Ochoa,Maite Irun,Pelayo Pazos,Miguel Diaz"
1,Los Pelambres,-42.32243113,-71.80459968,IV de Coquimbo,Monte Patria,19-04-1972,si,Cobre,-,"Michael Belmonte,Mihaela Marty,Elena Tricio,Imanol Cantero"
1,Algorta,-53.10318907,-70.05907216,II de Antofagasta,Antofagasta,07-10-1959,si,Yodo,-,"Maria Angels Sanchez Gil,Sergi Varela,Nestor Da Silva"
3,AbbVie Inc.,-47.65017997,-69.83986866,I de Tarapacá,Colchane,24-01-2009,si,-,-,"Mauricio Coll,Nicolae Carballo,Jessica Reinado,Carlos Manuel Alcaraz"
3,Virco Manufacturing Corporation,-54.88657627,-69.5041496,I de Tarapacá,Alto Hospicio,19-12-1998,si,-,-,"Eneko Cobo,Rosario Pisabarro,Julio Peña,Piedad Cabau"
1,Mantos de la Luna,-42.82090275,-69.76150537,II de Antofagasta,San Pedro de Atacama,04-12-1999,si,Cobre,-,"Juan Antonio Ortega,Nerea Niembro,Saturnino Chen,Maria Mercedes Mahedero,Carlos Ruiz"
2,"Fiserv, Inc.",-45.07676689,-71.8082965,III de Atacama,Diego de Almagro,17-05-1972,si,-,mareomotriz,"Urbano Pla,Minerva Pagazaurtundua,Roberto Carlos Pino,Milagros Acuyo,Adria Mesa"
1,Quiborax - Ascotán,-23.13717068,-69.95653874,II de Antofagasta,Antofagasta,29-02-2008,si,Boratos,-,"Maria Desamparados Lodos,Jose Manuel Alvarez,Alfredo Ibañez"
1,CMP - El Laco,-42.8435721,-71.19728748,II de Antofagasta,Mejillones,29-11-2018,si,Hierro,-,"Viorel Vives,Consolacion Recouso,Teofilo Ocaña,Maribel Cubino,Josu Arranz"
3,Tata Motors Ltd,-28.2179559,-71.50560249,II de Antofagasta,Mejillones,14-10-1991,si,-,-,"Josep Lorenzo,Yolanda Lecanda,Christian Palacios,Marcos Antonio Bartolome"
3,Eaton Vance Corporation,-47.85400498,-71.1090181,II de Antofagasta,Sierra Gorda,18-02-2005,si,-,-,"Marcial Pinto,Juan Lopez,Juan Maria Ros"
3,Peabody Energy Corporation,-48.88509748,-69.13073419,I de Tarapacá,Camiña,16-07-2017,si,-,-,"Josue Marques,Maria Cristina Villarta,Bruno Del Rio,Jenifer Valmaña,Francisco Jose Cano"
3,Vanguard Russell 3000 ETF,-49.69909901,-72.85156322,Metropolitana de Santiago,San Pedro,06-12-1994,si,-,-,"Benigno Camara,Benita Fontanillo,Carlos Alberto Villanueva"
3,Voya Global Equity Dividend and Premium Opportunity Fund,-24.66738408,-73.18711546,V de Valparaíso,Villa Alemana,14-06-1973,si,-,-,"Juan Miguel Casado,Rogelio Arenas,Amanda Mangana"
3,First Trust International Multi-Asset Diversified Income Index,-18.4703499,-68.72721423,II de Antofagasta,Tocopilla,11-12-1994,si,-,-,"Igor Hernando,Marta Paunero,Jose Ignacio Crespo"
3,First Trust Nasdaq Retail ETF,-34.24063231,-72.60813666,IV de Coquimbo,Coquimbo,02-03-1966,si,-,-,"Bernardino Palomo,Tatiana Daras,Mateo Menendez,Maria Laura Reula"
2,Orbotech Ltd.,-27.31596891,-70.96487997,III de Atacama,Diego de Almagro,10-03-1959,si,-,mareomotriz,"Jose Carlos Duran,Maria Jesus Amezua,Robert Juarez,Juan Bautista Paredes"
1,La Perla,-49.53720632,-72.44283924,Metropolitana de Santiago,San Pedro,08-11-1992,si,Caliza,-,"Saturnino Chen,Maria Paloma Haddu,Enric Collado"
2,iShares MSCI EM ESG Optimized ETF,-50.41748466,-71.36958532,III de Atacama,Alto del Carmen,06-03-1981,si,-,termoeléctrica,"Urbano Pla,Amanda Mangana,Pedro Antonio Miguel,Basilio Requena"
3,PowerShares Golden Dragon China Portfolio,-28.8698376,-74.6328144,VIII del Bío-Bío,Yumbel,20-09-2010,si,-,-,"Margarita Alecu,Pedro Pablo Cobos,Dionisia Urrutikoetxea,Yeray Bonilla"
3,"Texas Capital Bancshares, Inc.",-18.13731948,-73.45570689,VIII del Bío-Bío,Santa Bárbara,11-06-1964,si,-,-,"Hector Soto,Lydia Sacedo,Josefina Serral"
1,Mantos Blancos,-46.1401754,-70.39165648,II de Antofagasta,Ollagüe,13-09-2016,si,Cobre,-,"Anselmo Pujol,Maria Elisa Bolet,Hipolito Morillo,Agustina Rodao,Felix Fuentes"
1,Choquelimpie,-37.96750025,-69.52267617,XV de Arica y Parinacota,Arica,24-09-1985,si,Oro,-,"Moises Marcos,Mihaela Marty,Mohamed Caballero,Erik Zapata"
2,Novelion Therapeutics Inc.,-24.66135957,-71.79570962,III de Atacama,Vallenar,01-11-2000,si,-,hidroeléctrica,"Avelino Ojeda,Maite Irun,Alberto Ramirez,Maria Rocio Escobero,Nil Catalan"
3,Double Eagle Acquisition Corp.,-45.70169924,-72.52887097,III de Atacama,Diego de Almagro,16-11-2005,si,-,-,"Andoni Lago,Maria Jesus Amezua,Juan Ignacio Simon,Cristina Macipe,Benigno Camara"
2,Celgene Corporation,-32.02967643,-72.26932097,III de Atacama,Tierra Amarilla,25-10-2014,si,-,geotérmica,"Pablo Jose Figueroa,Naiara Pastora,Pedro Pablo Cobos,Ingrid Bonamusa"
1,El Tesoro,-34.62424827,-70.77212716,II de Antofagasta,María Elena,27-09-1959,si,Cobre,-,"Gerard Gracia,Obdulia Alcelay,Leopoldo Porras,Salvadora Mundet,Enrique Molina"
1,Altamira,-53.0118099,-70.74491312,II de Antofagasta,Ollagüe,20-09-1952,si,Cobre,-,"Jose Francisco Velasco,Maria Esperanza San Luis,Ayoub Moyano,Ana Cristina Conill"
1,El Salvador,-26.95566592,-70.62948214,III de Atacama,Copiapó,30-11-2011,si,Cobre,-,"Manuel Rodriguez,Fabiola Dumbrava,Yago Alfaro,Maria Nieves Lalana,Pedro Pablo Cobos"
2,Container Store (The),-34.06870467,-69.2587778,II de Antofagasta,Sierra Gorda,04-09-1997,si,-,hidroeléctrica,"Coral Mesbahi,Omar Abad,Celestino Oliver"
3,Royal Caribbean Cruises Ltd.,-41.36405867,-72.88275487,Metropolitana de Santiago,Padre Hurtado,10-10-2018,si,-,-,"Luis Eduardo Hervas,Jesusa Estades,Vidal Tejero,Juan Miguel Casado"
1,Sierra Miranda,-17.05555729,-71.25546485,II de Antofagasta,Taltal,17-07-1980,si,Cobre,-,"Iñaki Blazquez,Ainara De Luz,Jose Juan Salvador,Concepcion Cristaldo,Josue Marques"
1,El Morro,-23.74250416,-72.5780991,III de Atacama,Vallenar,18-11-1988,si,"Cobre,Oro",-,"Fabio Ariza,Maria Pilar Lopez Cozar,Evaristo Olivares,Jose Miguel Diez"
1,Pucobre,-41.80840469,-70.92042281,III de Atacama,Alto del Carmen,31-12-1966,si,Cobre,-,"Encarna Alzina,Abraham Alba,Agueda El Baroudi,Jan Pelaez"
2,Corporate Asset Backed Corp CABCO,-47.20766107,-69.38848421,I de Tarapacá,Colchane,02-02-1973,si,-,solar,"Ismael Herrero,Eloy Aparicio,Arnau Cuesta"
3,"SeaChange International, Inc.",-20.8146013,-73.43119955,XII de Magallanes y de la Antártica Chilena,Natales,29-01-1953,si,-,-,"Primitivo Serna,Sacramento Andrea,Luis Alberto Padilla,Arantxa Canelles,Aleix Burgos"
2,Entercom Communications Corporation,-43.90538222,-67.93186104,I de Tarapacá,Alto Hospicio,22-06-2006,si,-,mareomotriz,"Rosa Rosino,Marta Maria Arillo,Manuel Francisco Del Valle"
1,La Marcelina,-45.04730088,-68.6226631,XV de Arica y Parinacota,General Lagos,27-05-1955,si,"Cobre,Silicio,Diamante",-,"Jose Maria Navarro,Carlota Dobra,Antonio Jose Franco,Juan David Dos Santos"
1,Gabriela Mistral,-31.31565918,-70.12268731,II de Antofagasta,Calama,09-10-2006,si,Cobre,-,"Jonatan Conde,Fatima Osle,Antonio Jesus Redondo,Ana Cristina Conill,Jose Luis Perez"
2,Arch Capital Group Ltd.,-31.03868479,-69.42270489,II de Antofagasta,Ollagüe,01-05-1980,si,-,hidroeléctrica,"Marino Llamas,Manuela Sante,Carlos Ruiz,Carlota Dobra,Alonso Rodrigo"
1,Antucoya,-34.8080603,-69.73821998,II de Antofagasta,Sierra Gorda,09-09-1961,si,Cobre,-,"Bautista Noguera,Rosa Maria Cousido,Raul Ortiz,Maria Laura Reula,Unai Galvez"
1,Carola,-22.41636966,-72.69038964,III de Atacama,Huasco,29-11-1976,si,Cobre,-,"Marcelo Perea,Ernesto Valero,Inocencia Renes,Jose Maria Navarro"
2,PowerShares KBW High Dividend Yield Financial Portfolio,-35.14139984,-72.35758798,IV de Coquimbo,Illapel,07-07-2003,si,-,nuclear,"Benigno Camara,Alexia Merello,Hamza Barrio,Aimar Espejo"
1,Spence,-46.48103337,-70.46400352,II de Antofagasta,Calama,03-01-1989,si,Cobre,-,"Mariano Pascual,Sandra Maria Esteruelas,Primitivo Serna"
1,Cerro Blanco,-24.54405253,-72.11803136,Metropolitana de Santiago,Curacaví,24-02-1953,si,Caliza,-,"Pau Sierra,Elsa Puges,Jesus Miguel Valenzuela"
1,Haldeman - Sagasca,-17.88031716,-70.02811716,I de Tarapacá,Pozo Almonte,23-06-1977,si,Cobre,-,"Robert Juarez,Ezequiel Correa,Pastora Almeria,Noel Paniagua"
1,Victoria,-48.80221815,-72.95778926,VIII del Bío-Bío,Alto Biobío,12-10-2014,si,Carbón,-,"Nestor Da Silva,Avelina Laviana,Rodrigo Merino,Eusebia Reines"
2,L.B. Foster Company,-38.82480482,-71.58608915,III de Atacama,Diego de Almagro,09-05-1992,si,-,solar,"Vasile Ordoñez,Consuelo Lamrani,Clemente Vela,Estrella Duñabeitia,Lucas Rey"
3,Regal Entertainment Group,-46.71477133,-71.79620512,II de Antofagasta,Ollagüe,20-08-2004,si,-,-,"Alberto Jose Zambrano,Isidora Fabero,Mateo Menendez,Yago Alfaro"
1,Celite - Tana,-23.66594089,-68.43100801,I de Tarapacá,Iquique,11-06-1997,si,Diatomitas,-,"Eloy Aparicio,Maria Piedad Cabeo,Ismael Herrero,Malika Cucharero,Oriol Jurado"
2,iPath US Treasury Long Bond Bear ETN,-40.35185122,-72.80959953,V de Valparaíso,Casablanca,31-08-2009,si,-,solar,"Anastasio Barba,Ariadna Djalo,Aquilino Guijarro,Monica Holt"
2,Cambrex Corporation,-47.12542695,-72.06503108,II de Antofagasta,Sierra Gorda,15-12-1960,si,-,hidroeléctrica,"Juan Diego Salgado,Maria Soledad Maresma,Marcial Pinto,Fabian Solis"
2,Pure Cycle Corporation,-37.14424689,-72.54907999,XII de Magallanes y de la Antártica Chilena,Cabo de Hornos,19-05-1991,si,-,termoeléctrica,"Nadia De La Haza,Jose Alejandro Heras,Anna Maria Tristante"
1,Ojos del Salado,-27.35831322,-72.08958712,III de Atacama,Chañaral,12-12-1997,si,Cobre,-,"Gregorio Roman,Maria Purificacion Bures,Bernardo Vila,Jesusa Estades,Victor Manuel Pastor"
1,Caupolicán,-34.53425139,-74.13740142,XII de Magallanes y de la Antártica Chilena,Timaukel,26-04-1961,si,Hidrocarburos,-,"Iluminada Bonnet,Alfonsa Relloso,Luis Eduardo Hervas"
3,EPR Properties,-43.18864931,-70.99239316,I de Tarapacá,Pica,11-05-1960,si,-,-,"Stefan Bello,Ibai Gamez,Cristina Maria Vilana,Dario Santamaria"
2,First Trust Emerging Markets Small Cap AlphaDEX Fund,-30.53557678,-71.02260317,III de Atacama,Alto del Carmen,22-09-2003,si,-,termoeléctrica,"Valeriano Rincon,Sarai Celador,Fidel Puig,Maria Antonia Niculescu,Severino Huerta"
3,Aircastle Limited,-46.56347763,-68.72332298,XV de Arica y Parinacota,General Lagos,24-05-2013,si,-,-,"Jeronimo Hurtado,Maria Piedad Cabeo,Teodoro Lazaro,Manuel Alejandro Peinado"
1,Esperanza,-45.38971199,-69.86726192,II de Antofagasta,Mejillones,20-12-1979,si,Cobre,-,"Christian Palacios,Ferran Marco,Maite Irun,Antonio Garcia"
2,BLDRS Asia 50 ADR Index Fund,-31.16445081,-68.37160087,I de Tarapacá,Huara,09-01-2018,si,-,solar,"Carlos Manuel Alcaraz,Maria Estrella Zuheros,Gheorghe Quesada"
3,Western Asset Bond Fund,-26.74654065,-70.42299346,III de Atacama,Chañaral,18-03-2001,si,-,-,"Eulogio Granados,Eulalia Aliaño,Jon Casas"
2,Forum Merger Corporation,-32.94742502,-73.76307958,VI del Libertador General Bernardo O'Higgins,Rancagua,29-06-1957,si,-,mareomotriz,"Francisco Borja Toro,Gemma Betolaza,Julia Maria Ruiz De Arcaute,Luis Miguel Saez"
3,Nuveen Michigan Quality Municipal Income Fund,-50.09388595,-68.48847426,I de Tarapacá,Pozo Almonte,04-12-1982,si,-,-,"Eleuterio Gordillo,Maria Elvira Vilda,Higinio Dorado,Salud Mollo,Yeray Bonilla"
2,"Discovery Communications, Inc.",-53.65404297,-73.26718516,VIII del Bío-Bío,Tucapel,30-01-1985,si,-,solar,"Jose Fernando Carrera,Anna Marica,Jose Angel Carmona,Marina Butragueño,Jose Enrique Manzano"
3,Drive Shack Inc.,-51.33607506,-71.89800211,IV de Coquimbo,La Higuera,23-11-1952,si,-,-,"Josep Maria Acosta,Martina Castañar,Gerardo Exposito,Covadonga Maravilla,Mamadou Solano"
3,"Mid-America Apartment Communities, Inc.",-53.8656465,-72.79450762,VIII del Bío-Bío,Tucapel,18-12-1974,si,-,-,"Jose Pablo Saenz,Jeronimo Hurtado"
3,STMicroelectronics N.V.,-43.90888808,-74.4424349,VIII del Bío-Bío,San Rosendo,02-12-1982,si,-,-,"Gorka Martos,Josefa Senso,Antonio Miguel Riera,Laila Peyro,Michael Belmonte"
2,RenaissanceRe Holdings Ltd.,-24.07761632,-73.52356648,V de Valparaíso,Juan Fernández,24-06-1968,si,-,nuclear,"Fuensanta Callis,Primitivo Serna,Jairo Villa"
2,"LTC Properties, Inc.",-51.29783946,-71.50237003,III de Atacama,Freirina,16-06-2018,si,-,mareomotriz,"Antonia Maria Leach,Abraham Alba,Anastasio Barba"
1,El Guindo,-50.43770014,-73.62178091,Metropolitana de Santiago,Alhué,29-09-1975,si,Caolín,-,"Luis Francisco Carvajal,Susana Muntadas,Luis Manuel Lorente,Bernardino Palomo"
1,Cerro Bayo,-21.72358876,-73.86217581,XI de Aysén del General Carlos Ibañez del Campo,Río Ibáñez,05-11-2016,si,Oro,-,"Francisco Luis Puente,Anna Marica,Mohamed Caballero,Jose Maria Navarro"
2,Kite Realty Group Trust,-46.95808708,-71.09731439,II de Antofagasta,María Elena,29-04-2014,si,-,geotérmica,"Khalid Quintero,Maria Aranzazu Wojcik,Jordi Vidal"
3,"XO Group, Inc.",-24.92641372,-72.63476081,XII de Magallanes y de la Antártica Chilena,Río Verde,22-01-2014,si,-,-,"Catalina Bowen,Alvaro Castro,Gema Maria Molinares,Andoni Lago"
1,SQM Salar,-41.90476211,-71.40707744,II de Antofagasta,Tocopilla,16-06-2002,si,Litio,-,"Aurelio Rico,Gema Gallent,Victor Jose De Miguel"
1,El Abra,-49.12840071,-69.06715874,II de Antofagasta,Mejillones,25-10-1970,si,Cobre,-,"Maximiliano Amaya,Maria Encarnacion Bahri,Markel Pizarro"
3,"Destination XL Group, Inc.",-51.84366508,-71.45974926,III de Atacama,Copiapó,27-11-1982,si,-,-,"Roger Avila,Marcela Ortegon,Francisco Jesus Blasco,Maria Cinta Akhrif"
1,Escondida,-40.25595432,-71.1296847,II de Antofagasta,San Pedro de Atacama,13-08-2018,si,Cobre,-,"Manuela Sante,Jose Pablo Saenz"
2,BLDRS Developed Markets 100 ADR Index Fund,-18.96674942,-72.66627876,XI de Aysén del General Carlos Ibañez del Campo,Chile Chico,29-06-1978,si,-,termoeléctrica,"Juan Jesus Calderon,Natalia Lancis,Gabriel Vega,Anna Maria Tristante"
1,Navío,-29.02393516,-73.58812257,V de Valparaíso,Quintero,07-07-1957,si,Cal,-,"Roberto Carlos Pino,Gloria Cidre,Domingo Santana,Lola Sellers,Jose Felix Cerezo"
3,"Franklin Financial Network, Inc.",-36.83268638,-71.12683534,II de Antofagasta,Sierra Gorda,13-10-1984,si,-,-,"Adan Frias,Lourdes Menguiano,Casimiro Vergara,Pol Costa"
1,Cóndor,-45.93308769,-70.27512236,XV de Arica y Parinacota,Putre,16-12-1987,si,Boratos,-,"Maria Nuria Silio,Gregorio Roman,Gabriela Chulian,Aquilino Guijarro"
1,Punta de Lobos - Kanita,-48.7080749,-69.02837929,I de Tarapacá,Camiña,24-08-1978,si,Sal,-,"Juan David Dos Santos,Olivia Herance,Jose Joaquin Barrera,Maria Merce Vias"
2,Kamada Ltd.,-26.85917867,-71.27095578,III de Atacama,Chañaral,05-05-1998,si,-,termoeléctrica,"Juan David Dos Santos,Anastasia Cristofol,Felix Fuentes,Laura Golan,Jose Antonio Sanchez"
1,Marte Lobo,-50.73155899,-71.52095482,III de Atacama,Copiapó,26-06-2010,si,Oro,-,"Luisa Maria Bando,Modesto Polo,Maria Dolors Rina,Jose Vicente Galan"
1,El Toqui,-18.89524832,-73.6547943,XI de Aysén del General Carlos Ibañez del Campo,Chile Chico,20-02-1961,si,"Cinc,Oro,Plata",-,"Anna Maria Tristante,Juan Pablo Rueda,Otilia Sambola,Luis Maria Mena"
3,Cowen Inc.,-26.50692326,-69.23982757,III de Atacama,Copiapó,26-11-2000,si,-,-,"Ezequiel Correa,Belen Gosende,Peter Olmedo"
3,"Nutanix, Inc.",-22.75120305,-73.71128663,XI de Aysén del General Carlos Ibañez del Campo,Río Ibáñez,03-08-1954,si,-,-,"Omar Abad,Belen Gosende,Eulogio Granados,Maria Remedios Cabarrocas,Adam Carrion"
3,Janus Henderson Small Cap Growth Alpha ETF,-18.6558614,-70.75718455,II de Antofagasta,Calama,02-12-1981,si,-,-,"Luis Francisco Carvajal,Joel Contreras,Felicitas Fermosel,Emiliano Oliva"
1,Chimborazo,-50.34084038,-69.96995666,II de Antofagasta,Ollagüe,07-04-2001,si,Cobre,-,"Marcos Herrera,Eugenia Ochovo,Antonio Manuel Mateo,Remedios Caton,Kevin De La Fuente"
1,Cerro Casale,-54.05804052,-72.16371161,III de Atacama,Copiapó,27-06-1984,si,Oro,-,"Julio Peña,Elena Maria Amargant,Jose Alejandro Heras,Maximo Rojo"
3,China Cord Blood Corporation,-24.55756186,-74.09087615,VII del Maule,Los Álamos,20-10-1968,si,-,-,"Dario Santamaria,Jana Casafont,Maria Juana Mallor"
2,Novanta Inc.,-18.25662271,-69.48914967,I de Tarapacá,Pozo Almonte,15-08-1958,si,-,nuclear,"Maria Angustias El Hamdi,Antonio Luis Velazquez,Justa Seglar"
1,CMP - Los Colorados,-29.8906932,-72.36810449,III de Atacama,Chañaral,21-08-2015,si,Hierro,-,"Mamadou Solano,Peter Olmedo,Sonia Maria Carcas,Lazaro Egea"
2,U.S. Energy Corp.,-37.23816728,-74.43611003,XIV de Los Ríos,Río Bueno,05-02-2001,si,-,hidroeléctrica,"Pedro Antonio Miguel,Jaume Arroyo,Maria Jose Paniza,Roman Castaño"
2,NVIDIA Corporation,-42.58984705,-71.93645833,VII del Maule,Tirúa,11-01-1996,si,-,mareomotriz,"Lara Salon,Mariano Pascual,Marcela Ortegon,Markel Pizarro"
3,"Argos Therapeutics, Inc.",-36.43390516,-69.29986234,II de Antofagasta,Calama,16-07-1990,si,-,-,"Nicolas Gimenez,Maria Milagros Miracle,Malika Cucharero,Carlos Antonio Salcedo"
2,Guaranty Bancorp,-45.75448464,-70.64443925,XV de Arica y Parinacota,Putre,31-05-1964,si,-,geotérmica,"Vicent Valles,Leyre Plagaro,Jose Alberto Estevez,Francisca Caelles"
3,Inseego Corp.,-41.18509248,-70.8563711,III de Atacama,Alto del Carmen,26-07-1990,si,-,-,"Hicham Cuadrado,Mercedes Mije,Driss Valdes,Leyre Plagaro,Abelardo Araujo"
2,Peapack-Gladstone Financial Corporation,-28.16579053,-74.53948987,XII de Magallanes y de la Antártica Chilena,San Gregorio,07-07-1957,si,-,hidroeléctrica,"Francesc Xavier Pineda,Luna Garmilla,Dario Santamaria,Elisa Ciruela,Aritz Cervera"
2,"German American Bancorp, Inc.",-34.82987584,-72.10349722,IV de Coquimbo,Coquimbo,06-01-1989,si,-,mareomotriz,"Juan Alberto Sala,Claudia Muriano,Joaquim Paz,Hortensia Laina,Genaro Andrade"
1,La Picarda,-46.7411032,-70.00575467,I de Tarapacá,Camiña,05-04-2013,si,Diatomitas,-,"Robert Juarez,Maria Luisa Garaizabal,Higinio Dorado,Filomena El Mahi"
3,"Apple Hospitality REIT, Inc.",-52.81944746,-70.19279546,II de Antofagasta,Antofagasta,26-02-1951,si,-,-,"Juan Ramon Soriano,Maria Desamparados Lodos,Joseba Palma,Luz Marina Ardao,Gorka Martos"
3,"TC PipeLines, LP",-23.32492091,-68.26543116,I de Tarapacá,Iquique,04-02-1951,si,-,-,"Alejandro Romero,Mauro Peralta,Hamza Barrio"
2,"Nustar GP Holdings, LLC",-20.46904993,-74.09165819,Metropolitana de Santiago,María Pinto,28-12-1982,si,-,mareomotriz,"Rufino Rosa,Dolors Casqueiro,Jose Angel Carmona"
1,Cosayach - Cala Cala,-44.6798846,-68.82300689,I de Tarapacá,Alto Hospicio,28-03-2014,si,"Yodo,Nitratos",-,"Rodolfo Becerra,Maria Vicenta Borjabad,Maria Angela Miraz,Pablo Jose Figueroa"
3,Georgia Power Company,-42.73855109,-70.85971668,II de Antofagasta,Tocopilla,13-06-1984,si,-,-,"Emilio Jose Caro,Andrea Curtis,Jose Ramon Carrasco,Hipolito Morillo"
2,PowerShares BuyBack Achievers Portfolio,-31.74765126,-73.25186772,IV de Coquimbo,Río Hurtado,29-02-1984,si,-,hidroeléctrica,"Estela Darkaoui,Abelardo Araujo,Maria Concepcion Avellana"
3,Costamare Inc.,-46.42174025,-74.18435217,VII del Maule,Cañete,13-09-1969,si,-,-,"Francisca Caelles,Antonio Maria Lafuente,Maria Desamparados Lodos,Antonio Jesus Redondo"
2,Gilat Satellite Networks Ltd.,-45.78367424,-75.38032149,XII de Magallanes y de la Antártica Chilena,Antártica,11-05-1955,si,-,solar,"Maximino Segovia,Silvia Dobrev,Carme Hompanera,Christian Palacios"
2,The9 Limited,-55.54343624,-69.83053791,I de Tarapacá,Alto Hospicio,20-11-1961,si,-,hidroeléctrica,"Justo Luna,Maria Celia Arisa,Juan Angel Piñeiro,Maria Isabel Gasset,Juan Alberto Sala"
3,"Taiwan Fund, Inc. (The)",-48.08224171,-73.04903485,VII del Maule,Contulmo,08-12-2002,si,-,-,"Federico Bueno,Maria Salud Libano,Maria Milagros Miracle"
3,Entegra Financial Corp.,-40.87226832,-72.21115048,IV de Coquimbo,Monte Patria,01-09-1976,si,-,-,"Gheorghe Quesada,Victorina Aranzadi,Gregorio Roman,Maria Fernanda Villasuso,Manel Cid"
3,Torchmark Corporation,-29.97956124,-71.96526653,III de Atacama,Alto del Carmen,07-06-1963,si,-,-,"Celestino Oliver,Abderrahim Ruano,Maria Consolacion Villagarcia,Julen Cordoba"
3,SAP SE,-24.59414909,-72.68571232,V de Valparaíso,Juan Fernández,21-03-2003,si,-,-,"Marcial Pinto,Araceli Regodon,Damian Valle,Maria Estrella Zuheros,Jose Emilio Poveda"
2,"Appliance Recycling Centers of America, Inc.",-52.80292319,-69.87682299,II de Antofagasta,Ollagüe,25-03-1980,si,-,hidroeléctrica,"Julia Maria Ruiz De Arcaute,Ricardo Cruz,Angelina Mogio,Gheorghe Quesada"
1,Punitaqui,-43.21815285,-73.07526943,IV de Coquimbo,Ovalle,29-02-1976,si,Cobre,-,"Vicente Delgado,Carmen Rosa Acereda"
1,Schwager,-45.39717876,-73.82516204,VIII del Bío-Bío,San Rosendo,02-09-1992,si,Carbón,-,"Feliciana Buide,Jose Miguel Diez,Ana Maria Bartomeu,Bilal Jorge"
3,Old Republic International Corporation,-43.73148185,-69.37467027,I de Tarapacá,Alto Hospicio,21-04-1973,si,-,-,"Juan Luis Soler,Encarna Alzina,Izan Juan,Agueda El Baroudi,Marius Fraile"
3,"Cleveland BioLabs, Inc.",-39.31051311,-70.78321928,II de Antofagasta,San Pedro de Atacama,11-11-1979,si,-,-,"Aitor Vargas,Maria Lourdes Sotodosos,Jesica Masvidal"
1,Pampa Camarones,-45.02954045,-68.47397968,XV de Arica y Parinacota,General Lagos,22-02-2005,si,Cobre,-,"Antonio Javier Toledo,Guillermina Cenoz,Noelia Foncillas,Patricio Miralles"
1,Bronce de Petorca,-46.76871429,-73.4125935,V de Valparaíso,Valparaíso,14-08-1979,si,Oro,-,"Samuel Benitez,Saturnina De Frias,Jose Pablo Saenz,Teresa Jesus Posado,Pascual Guerra"
3,"Gabelli Equity Trust, Inc. (The)",-29.09239262,-74.52918534,XII de Magallanes y de la Antártica Chilena,San Gregorio,03-06-1960,si,-,-,"Carlos Manuel Alcaraz,Encarna Alzina,Santiago Santos,Ramona Urrego,Marcelino Miranda"
1,Cerro Negro,-53.47278162,-73.54103596,V de Valparaíso,Puchuncaví,02-12-1975,si,Cobre,-,"Severino Huerta,Emilio Jose Caro,Joaquim Paz"
1,Andacollo Cobre,-35.37694761,-71.53827676,IV de Coquimbo,Illapel,25-07-1951,si,Cobre,-,"Maria Aurora Calota,Victor Cortes,Zaira Pruneda,Gines Ponce"
2,"Meridian Waste Solutions, Inc",-45.56787716,-67.74744981,XV de Arica y Parinacota,General Lagos,21-10-1979,si,-,nuclear,"Evaristo Olivares,Pilar Bedialauneta,Marco Antonio Tomas,Clara Nouri,Jose Angel Carmona"
2,"Kayne Anderson Energy Total Return Fund, Inc.",-23.57398446,-72.00715791,Metropolitana de Santiago,Curacaví,22-11-1979,si,-,nuclear,"Eugenio Rojas,Mariam Corrons,Augusto Tena,Joaquim Paz"
2,Limoneira Co,-22.41457701,-69.34907021,II de Antofagasta,Antofagasta,23-11-2002,si,-,termoeléctrica,"Alan Melero,Ignasi Rosales,Maria Piedad Cabeo"
2,"First Financial Bankshares, Inc.",-49.40819843,-73.44452398,XII de Magallanes y de la Antártica Chilena,Primavera,06-02-1969,si,-,nuclear,"Luis Miguel Saez,Estrella Duñabeitia,Joseba Palma,Maria Rocio Escobero"
2,"Cyclacel Pharmaceuticals, Inc.",-54.06178027,-70.36594979,II de Antofagasta,Taltal,20-07-2017,si,-,nuclear,"Lucio Cabezas,Erika Trasmonte"
3,Crawford & Company,-54.16098596,-73.44295806,IV de Coquimbo,Vicuña,16-08-2005,si,-,-,"Vidal Tejero,Mireia Alocen,Roque Borrego,Sandra Maria Esteruelas,Antonio Javier Toledo"
3,"Delcath Systems, Inc.",-39.17132517,-72.07184672,III de Atacama,Diego de Almagro,04-03-1969,si,-,-,"Valentina Miñones,Marius Fraile,Alexia Merello,Lucas Rey"
2,"Ashford Hospitality Prime, Inc.",-45.841688,-74.24113967,V de Valparaíso,Valparaíso,27-05-1969,si,-,termoeléctrica,"Jose Joaquin Barrera,Khadija Contijoch,Iker Pardo,Maria Pilar Lopez Cozar"
2,"Rush Enterprises, Inc.",-30.49560682,-73.22249931,III de Atacama,Chañaral,21-11-1957,si,-,nuclear,"John Rebollo,Idoia Hadi,Joana Ganzo,Salvador Calvo"
3,GlaxoSmithKline PLC,-18.47051602,-70.13306378,III de Atacama,Chañaral,23-09-1952,si,-,-,"Paulino Amador,Leopoldo Porras,Sofia Portes,Jose Alfonso Mateu"
3,Great Plains Energy Inc,-33.39907535,-73.6965027,VI del Libertador General Bernardo O'Higgins,Rancagua,07-08-1959,si,-,-,"Jon Casas,Ramona Urrego,Leonardo Corral,Juan Vicente Calero"
2,"Urban One, Inc. ",-22.6316032,-69.88975164,II de Antofagasta,Sierra Gorda,21-11-1999,si,-,geotérmica,"Maximiliano Amaya,Ainhoa Aumente,Maria Beatriz Boutahar,Vicente Delgado"
3,Bed Bath & Beyond Inc.,-30.41079413,-72.28140068,III de Atacama,Chañaral,17-11-1982,si,-,-,"Lara Salon,Candida Schulze,Gabriel Vega"
3,PIMCO Dynamic Credit and Mortgage Income Fund,-44.15489593,-73.61271333,IV de Coquimbo,Ovalle,19-03-1980,si,-,-,"Luis Miguel Saez,Lucia Peula,Gregorio Roman,Davinia Linaje"
2,Apollo Senior Floating Rate Fund Inc.,-37.20283556,-73.69478663,V de Valparaíso,Concón,25-06-2006,si,-,geotérmica,"Santos Bermejo,Bienvenida Mite,Constantin Andreu,Maria Gracia Bellvis,Ali Linares"
1,Caserones,-31.16089173,-70.89554656,III de Atacama,Tierra Amarilla,11-12-1981,si,Cobre,-,"Francisco Manuel Vera,Mariana Narbon,Modesto Polo,Aurelia Foguet,Valeriano Rincon"
1,Linderos,-54.10836128,-72.54131209,IV de Coquimbo,Vicuña,15-11-1980,si,Cobre,-,"Baldomero Cebrian,Olivia Herance,Juan Fernando Pena,Carolina Cidon,Aurelio Rico"
1,Andacollo Oro,-39.40655928,-73.12322375,IV de Coquimbo,Canela,15-07-1975,si,Oro,-,"Sergio Ramos,Engracia Tolos,Eric Aguilera,Carla Golderos,Fidel Puig"
2,Carvana Co.,-30.63543452,-68.32490076,II de Antofagasta,Taltal,16-12-2015,si,-,nuclear,"Unai Galvez,Leire Crusat,Yanira Sanchez Rey,Jose Pablo Saenz"
3,Northern Trust Corporation,-33.29786746,-72.0236178,II de Antofagasta,Sierra Gorda,22-01-1979,si,-,-,"Palmira Ruales,Carlos Antonio Salcedo,Maria Montserrat Liquete,Ionel Agudo"
1,Celite - Tilviche,-47.48083996,-69.78816034,I de Tarapacá,Camiña,04-09-1965,si,Diatomitas,-,"Ana Isabel Manzana,Rodrigo Merino,Mirian Cernat"
1,El Teniente,-32.10812979,-74.10672937,VI del Libertador General Bernardo O'Higgins,Rancagua,12-01-1989,si,Cobre,-,"Juana Cosialls,Julen Cordoba"
3,Neff Corporation,-45.49644381,-76.14144442,XII de Magallanes y de la Antártica Chilena,Antártica,11-12-1973,si,-,-,"Julen Cordoba,Belen Gosende,Joaquina Del Jesus,Muhammad Arevalo"
2,VictoryShares US 500 Enhanced Volatility Wtd ETF,-29.72839455,-71.02219486,II de Antofagasta,María Elena,27-09-1970,si,-,hidroeléctrica,"Mauro Peralta,Visitacion De La Prida,Ivan Sanz,Maria Angels Sanchez Gil,Juan Alberto Sala"
1,Flor de Los Andes,-46.75384618,-71.52360501,IV de Coquimbo,Combarbalá,25-07-1954,si,Lapislázuli,-,"Marcos Herrera,Silvia Maria Camuña,Ignacia Ameller,Christian Palacios"
1,Isla Riesco,-45.53392116,-74.80555265,XII de Magallanes y de la Antártica Chilena,Antártica,13-08-2000,si,Carbón,-,"Alexandre Aragon,Leyre Plagaro,Juan Diego Salgado,Luis Fernando Ballesteros"
3,First Trust South Korea AlphaDEX Fund,-24.7683369,-71.8845958,VI del Libertador General Bernardo O'Higgins,Codegua,12-11-1991,si,-,-,"Feliciana Buide,Said Maldonado,Amanda Mangana,Cesar Arias"
3,"PDF Solutions, Inc.",-45.17052541,-69.98027157,XV de Arica y Parinacota,Putre,28-02-1979,si,-,-,"Noel Paniagua,Antia Grado,Jose Jesus Chaves,Fernanda Susarte,Ismael Herrero"
2,Cabot Corporation,-41.82457563,-70.04926654,III de Atacama,Alto del Carmen,29-09-1996,si,-,nuclear,"Blas Alarcon,Marti Aguado"
2,Data Processing,-47.59593324,-72.36669104,III de Atacama,Vallenar,27-07-1974,si,-,geotérmica,"Juan Ramon Soriano,Florentina Rebenaque"
1,Iván,-38.11993762,-70.60047994,II de Antofagasta,Sierra Gorda,22-02-1980,si,Cobre,-,"Adan Frias,Juan Enrique Real,Maria Elvira Vilda,Francisco Miguel Castellano"
1,Cosayach - Negreiros,-50.89317516,-69.80606347,I de Tarapacá,Colchane,16-05-1979,si,"Yodo,Nitratos",-,"Julia Maria Ruiz De Arcaute,Gabriel Vega,Maria Natividad Bardallo"
1,Delta,-38.54033002,-71.39594038,IV de Coquimbo,Salamanca,07-01-1990,si,Cobre,-,"Aaron Benito,Feliciana Buide,Bienvenido Navarrete,Marcelina Capellades,Pedro Muñoz"
2,Silvercrest Asset Management Group Inc.,-51.64844751,-70.30809486,II de Antofagasta,Ollagüe,15-07-1950,si,-,geotérmica,"Adrian Rubio,Concepcion Cristaldo,Feliciano Villegas,Judit Dilme,Jose Eduardo Piñero"
1,Tres Valles,-22.83237098,-72.19113554,IV de Coquimbo,Punitaqui,14-10-1998,si,Cobre,-,"Youssef Aguirre,Anna Maria Tristante,Jan Pelaez,Alfonsa Relloso"
3,"Enanta Pharmaceuticals, Inc.",-29.29631515,-73.79609293,V de Valparaíso,Quintero,06-06-1976,si,-,-,"Miguel Diaz,Helena Gabirondo,Marcel Angulo,Roque Borrego"
3,"Safe Bulkers, Inc",-46.75649659,-69.6195718,II de Antofagasta,Mejillones,23-03-1975,si,-,-,"Mario Gallego,Inmaculada Concepcion Gruber,Roberto Carlos Pino,Hilario Ayala"
1,Pascua,-45.84541746,-72.50348538,III de Atacama,Huasco,29-04-1996,si,Oro,-,"Miguel Angel Gutierrez,Candela Ruiz Hermosa,Evaristo Olivares,Maria Lourdes Sotodosos,Francisco Luis Puente"
2,Biglari Holdings Inc.,-20.51543241,-74.21582041,XII de Magallanes y de la Antártica Chilena,Natales,07-07-1965,si,-,hidroeléctrica,"Samuel Benitez,Maria Aurora Calota,Ramon Suarez,Patrocinio Montecinos,Urbano Pla"
3,"Gray Television, Inc.",-51.06075258,-74.25340939,Metropolitana de Santiago,Alhué,06-10-2004,si,-,-,"Jose Domingo Royo,Jesus Javier Freire,Primitivo Serna"
3,"CatchMark Timber Trust, Inc.",-33.44505908,-72.21041226,II de Antofagasta,Antofagasta,20-08-1990,si,-,-,"Fermin Beltran,Ainara De Luz,Juan Jose Blanco,Maria Encarnacion Bahri,Enric Collado"
1,Las Piedras,-43.10144946,-72.68829782,VII del Maule,Tirúa,17-11-1982,si,Cuarzo,-,"Maria Elisa Bolet,Bienvenido Navarrete,Carlos Antonio Salcedo"
2,"Western New England Bancorp, Inc.",-37.66461088,-70.62854518,II de Antofagasta,Sierra Gorda,18-02-1999,si,-,geotérmica,"Angel Luis Trujillo,Gemma Betolaza,Pedro Antonio Miguel"
3,"Shutterstock, Inc.",-23.78497286,-71.87950768,Metropolitana de Santiago,Curacaví,28-11-1986,si,-,-,"Carles Guzman,Ariadna Djalo,Aitor Vargas,Maria Jose Paniza"
2,"FSB Bancorp, Inc.",-23.97880405,-73.25941333,XII de Magallanes y de la Antártica Chilena,Río Verde,18-05-1970,si,-,mareomotriz,"Julio Cesar Vallejo,Ruth Canora,Esmeralda Samperiz,Emilio Leon"
1,SQM - Pedro de Valdivia,-42.57570453,-69.51443977,II de Antofagasta,Antofagasta,23-06-1992,si,Yodo,-,"Jose Ignacio Crespo,Georgina Casatejada,Blas Alarcon,Angeles Mañeru,Jesus Angel Lucas"
2,United Microelectronics Corporation,-34.30260501,-72.07558777,II de Antofagasta,Antofagasta,21-08-1966,si,-,nuclear,"Carmelo Macias,Otilia Sambola,David Martinez,Sofia Portes,Casimiro Vergara"
3,"Adams Diversified Equity Fund, Inc.",-23.61028685,-72.34481198,XIV de Los Ríos,Panguipulli,22-04-1960,si,-,-,"Jose Rafael Sainz,Anabel Rodriguez Peral,Gabriela Chulian,Alex Espinosa"
1,Tranquilo,-51.13728473,-73.03610548,XII de Magallanes y de la Antártica Chilena,Laguna Blanca,14-03-2019,si,Hidrocarburos,-,"Andres Nuñez,Jose Vicente Galan,Eugenia Ochovo,Eloy Aparicio"
1,Guanaco,-22.65293536,-70.66180792,II de Antofagasta,Sierra Gorda,12-06-2008,si,Oro,-,"Markel Pizarro,Maria Encarnacion Bahri,Valeriano Rincon,Mariona Sora,Mario Gallego"
2,PowerShares Nasdaq Internet Portfolio,-30.58149323,-68.53531036,I de Tarapacá,Huara,21-01-1966,si,-,solar,"Bautista Noguera,Enrique Molina,Olatz Algara,Yago Alfaro"
1,Lota,-17.96384615,-73.33109039,VIII del Bío-Bío,Santa Bárbara,13-12-2002,si,Carbón,-,"Maria Antonia Niculescu,Vicente Jose Mosquera,Jesus Javier Freire"
2,Diageo plc,-38.90344507,-68.46931075,XV de Arica y Parinacota,Arica,26-11-2015,si,-,termoeléctrica,"Mariano Pascual,Valeria Arnay,Jose Manuel Alvarez,Marcelino Miranda"
1,El Tofo,-46.26421645,-72.1887842,IV de Coquimbo,La Serena,23-04-2016,si,Hierro,-,"Alvaro Castro,Virginia Crehuet,Jeronimo Hurtado,Jacinta Mitrea,Lucas Rey"
2,Fair Isaac Corporation,-19.05572733,-70.1235245,I de Tarapacá,Pozo Almonte,08-04-1952,si,-,nuclear,"Jose Fernando Carrera,Josefa Maria Mongay,Francisco Borja Toro"
2,PTC Inc.,-43.92126064,-70.25055601,I de Tarapacá,Pica,30-04-1994,si,-,nuclear,"Roger Avila,Elena Maria Amargant,Saida Angueira,Unai Galvez"
3,E.I. du Pont de Nemours and Company,-52.58694562,-69.53267975,II de Antofagasta,Ollagüe,12-02-1986,si,-,-,"Carlos Antonio Salcedo,Ana Maria Bartomeu,Herminio Godoy,Emiliana Gil De Gomez,Imanol Cantero"
2,Stamps.com Inc.,-32.14490051,-70.02574064,III de Atacama,Tierra Amarilla,01-11-1982,si,-,geotérmica,"Pedro Jose Luque,Natividad Carabaño,Guillem Cordero,Marcelina Capellades,Carlos Ruiz"
3,Vina Concha Y Toro,-42.30241952,-72.4703344,VII del Maule,Tirúa,21-03-2010,si,-,-,"Camilo Ventura,Sara De Los Bueis,Damian Valle,Roque Borrego"
3,"Tootsie Roll Industries, Inc.",-29.7891032,-68.88677317,II de Antofagasta,San Pedro de Atacama,02-12-1971,si,-,-,"Fulgencio Barragan,Angelica Furundarena,Pedro Muñoz,Pedro Maria Sola"
1,Manto Verde,-37.1680669,-71.99358865,III de Atacama,Caldera,15-02-1967,si,Cobre,-,"Jose Emilio Poveda,Mercedes Mije,Mohammed Carrillo,Maria Angustias El Hamdi,Alonso Rodrigo"
2,"Ellie Mae, Inc.",-46.02318735,-72.31154556,IV de Coquimbo,La Serena,25-09-2001,si,-,nuclear,"Marcos Antonio Bartolome,Trinidad Aedo,Jorge Juan Grande,Andreu Domenech"
3,"The Chefs' Warehouse, Inc.",-50.31195952,-70.41277162,II de Antofagasta,Ollagüe,13-05-2010,si,-,-,"Yaiza Moto,Pedro Luis Pozo,Claudia Muriano,Jose Felix Cerezo"
1,Quiborax,-45.4454804,-69.66660029,XV de Arica y Parinacota,Putre,04-01-1976,si,Boratos,-,"Pedro Javier Sastre,Maria Angela Miraz,Ruth Canora,Xavier Gallardo"
3,"India Fund, Inc. (The)",-17.04318272,-74.71887529,XII de Magallanes y de la Antártica Chilena,Porvenir,27-02-1986,si,-,-,"Ibon Salguero,Anna Marica,Amina Coego,Brais Estrada"
3,Gladstone Commercial Corporation,-55.47742963,-70.28823355,I de Tarapacá,Alto Hospicio,10-03-2010,si,-,-,"Francesc Xavier Pineda,Maider Juanico,Jose Alberto Estevez,Ana Maria Bartomeu,Didac Gonzalo"
2,Check-Cap Ltd.,-19.52616206,-69.96478385,II de Antofagasta,Calama,20-09-1960,si,-,mareomotriz,"Eusebio Aranda,Lucia Peula"
2,"Investors Bancorp, Inc.",-50.83989176,-73.62680698,Metropolitana de Santiago,Alhué,22-04-1976,si,-,geotérmica,"Venancio Aviles,Jose Ramon Carrasco,Nagore Merelas,Juan Diego Salgado"
2,"MasTec, Inc.",-23.98766982,-72.31728235,II de Antofagasta,Tocopilla,06-01-1977,si,-,mareomotriz,"Julen Cordoba,Maria Alicia Matache,Unai Galvez,Genaro Andrade"
1,Las Pataguas,-25.74654418,-72.32445062,VI del Libertador General Bernardo O'Higgins,Codegua,25-04-1957,si,Pumicita,-,"Maximo Rojo,Idoia Hadi,Isaias Olmo"
1,Las Luces,-53.92453577,-71.07589986,II de Antofagasta,Taltal,21-12-1974,si,Cobre,-,"Amadeo Latorre,Malika Cucharero,Claudio Domingo,Maria Cruz Miteva,Fernando Jose Recio"
3,DRDGOLD Limited,-46.89029091,-70.91828549,IV de Coquimbo,Combarbalá,26-06-2018,si,-,-,"Lara Salon,Virgilio Chamorro,Angel Maria Baena"
2,Johnson & Johnson,-31.24773185,-73.37599763,Metropolitana de Santiago,Isla de Maipo,29-01-1965,si,-,geotérmica,"Alexandre Aragon,Eulalia Aliaño,Jose Manuel Alvarez,Maite Irun"
1,Cosayach - Soledad,-22.4076122,-69.04604462,I de Tarapacá,Iquique,21-04-2009,si,Yodo,-,"Jorge Juan Grande,Aitana Rosaleny,Fabian Solis,Isidora Fabero,Aziz Garzon"
2,Nuveen Municipal High Income Opportunity Fund,-38.89603639,-72.87012397,IV de Coquimbo,Paiguano,18-10-1962,si,-,solar,"Raimundo Barrios,Clara Nouri,Jose Gabriel Morcillo,Paula Guaza,Ernesto Valero"
3,"Herman Miller, Inc.",-22.71390651,-70.05634205,II de Antofagasta,Sierra Gorda,03-12-1957,si,-,-,"Josu Arranz,Gemma Betolaza,Feliciano Villegas,Ines Maria Revollo,Miguel Angel Gutierrez"
1,III de Atacama Kozan,-46.94661338,-72.1569849,III de Atacama,Vallenar,20-08-1959,si,Cobre,-,"Francisco Manuel Vera,Maria Blanca Tarrats,Demetrio Nicolas,Meritxell Baco,Lluis Plaza"
3,Fidus Investment Corporation,-45.46401685,-70.92528827,I de Tarapacá,Camiña,29-06-1952,si,-,-,"Manuel Jose Cardenas,Saray Giol,Leonardo Corral,Teresa Jesus Posado,Bartolome Mateos"
2,"Portola Pharmaceuticals, Inc.",-21.94825924,-74.05111571,XI de Aysén del General Carlos Ibañez del Campo,Río Ibáñez,29-01-1952,si,-,solar,"Matilde Linacero,Khalid Quintero,Gloria Cidre,Pedro Jose Luque"
3,Great Elm Capital Corp.,-46.91888967,-68.86531922,I de Tarapacá,Colchane,23-06-2001,si,-,-,"Constantin Andreu,Maria Teresa Verdia,Luis Miguel Saez,Noemi Ardoy,Santiago Santos"
1,Cordillera - Tenardita,-47.84204942,-69.03536409,I de Tarapacá,Colchane,23-10-1966,si,Sal,-,"Candido Escobar,Edgar Leal,Marina Butragueño,Evaristo Olivares"
2,"Avenue Therapeutics, Inc.",-49.36704952,-69.43572153,II de Antofagasta,Mejillones,01-05-2006,si,-,solar,"Feliciano Villegas,Maria Blanca Tarrats,Abelardo Araujo"
1,Pullalli,-40.15613517,-73.48525548,V de Valparaíso,Casablanca,16-09-1982,si,Oro,-,"German Camacho,Inocencia Renes,Ernesto Valero,Saray Giol,Jose Rafael Sainz"
1,Los Bronces,-20.63235417,-73.30770741,Metropolitana de Santiago,María Pinto,28-04-2010,si,Cobre,-,"Nuria Lazcoz,Sergio Ramos,Malika Cucharero,Felix Fuentes"
2,"Pepsico, Inc.",-44.60997938,-74.8371451,XII de Magallanes y de la Antártica Chilena,Punta Arenas,01-04-2016,si,-,geotérmica,"Bilal Jorge,Berta Ungria,Juan Dios Clemente"
1,Candelaria,-50.71227996,-71.28340564,III de Atacama,Freirina,24-10-1956,si,Cobre,-,"Enric Collado,Maria Olga De Caceres,Florencio Millan,Vicenta Lascu,Rufino Rosa"
3,West Corporation,-33.60469188,-74.0102517,IV de Coquimbo,Los Vilos,25-11-2004,si,-,-,"Brais Estrada,Sofia Portes,Clotilde Oyaga,Jesus Antonio Herranz"
1,Pupunahue,-25.24011737,-72.81762993,XIV de Los Ríos,Panguipulli,16-06-1979,si,Carbón,-,"Vidal Tejero,Estibaliz Pozon,Demetrio Nicolas,Francesc Xavier Pineda"
3,Dollar General Corporation,-45.38138189,-70.64325644,II de Antofagasta,María Elena,13-11-2012,si,-,-,"Cesar Arias,Basilisa Azam,Maria Angela Miraz,Viorel Vives"
2,Bright Scholar Education Holdings Limited,-32.29399007,-69.03379064,I de Tarapacá,Huara,24-05-1988,si,-,geotérmica,"Luis Miguel Saez,Alfonsa Relloso,Antonio Jesus Redondo,Salud Mollo,Juan Pedro Robles"
2,"Zynerba Pharmaceuticals, Inc.",-46.27776541,-69.97186244,II de Antofagasta,Mejillones,29-06-1968,si,-,solar,"Xabier Montoya,Esther Chaos,Denis Arce,Eulalia Aliaño,Justo Luna"
1,CMP - Romeral,-35.48098221,-71.1905625,IV de Coquimbo,Coquimbo,10-07-1954,si,Hierro,-,"Alberto Ramirez,Aida Esparrago,Jose Javier Silva,Pilar Bedialauneta,Gonzalo Nieto"
1,Pinatolca,-26.0446954,-74.04301221,VII del Maule,Los Álamos,18-04-1951,si,Arenas Silíceas,-,"Nestor Da Silva,Aranzazu Diaconescu,Ruben Medina,Maximo Rojo"
3,Cohen & Steers Reit and Preferred Income Fund Inc,-23.51683606,-72.25654139,IV de Coquimbo,Punitaqui,08-05-1969,si,-,-,"Olatz Algara,Manuel Rodriguez,Maialen Bauset"
3,B.O.S. Better Online Solutions,-15.80399679,-70.97515952,II de Antofagasta,Taltal,12-08-1962,si,-,-,"Adrian Rubio,Idoia Hadi,Gregoria Ugarteburu,Ferran Marco"
3,Hamilton Lane Incorporated,-47.66448994,-73.42405483,VIII del Bío-Bío,Alto Biobío,23-03-1950,si,-,-,"Andres Nuñez,Magdalena Chahlal,Nicolas Gimenez,Ascension Bratos,Victor Jose De Miguel"
2,ENGlobal Corporation,-45.98702795,-71.43452191,II de Antofagasta,Calama,12-02-1952,si,-,mareomotriz,"Juan David Dos Santos,Gabriel Vega,Samira Arabaolaza,Pedro Pablo Cobos"
2,Incyte Corporation,-38.30897238,-71.8913141,III de Atacama,Caldera,24-12-2002,si,-,solar,"Roger Avila,Rosana Cimarra,Jan Pelaez,Fatima Osle,Elias Serra"
2,"Westbury Bancorp, Inc.",-23.06057125,-71.79959903,III de Atacama,Huasco,14-12-2014,si,-,hidroeléctrica,"Mamadou Solano,Aina Martin Delgado,Raul Ortiz,Tamara Valldeperas,Isaias Olmo"
3,"HD Supply Holdings, Inc.",-48.87088641,-69.69011616,II de Antofagasta,Mejillones,07-01-2000,si,-,-,"Antonio Manuel Mateo,Soraya Rubiños,Josu Arranz,Candela Ruiz Hermosa,Patricio Miralles"
3,BRF S.A.,-17.40821544,-73.88095802,Metropolitana de Santiago,Talagante,04-08-1951,si,-,-,"Yeray Bonilla,Maria Josefa Justes,Antoni Roca,Felisa Singla,Aitor Vargas"
1,Zaldívar,-33.73365319,-70.20110685,II de Antofagasta,Taltal,19-09-1958,si,Cobre,-,"Amadeo Latorre,Brais Estrada,Melchor Lobato"
3,"Aspen Technology, Inc.",-21.55807674,-68.4005989,II de Antofagasta,Antofagasta,04-03-2014,si,-,-,"Florencio Millan,Victoria Akdi,Mohammed Carrillo,Nerea Niembro,Florencio Millan"
2,"Entergy Louisiana, Inc.",-26.16436623,-70.02406051,III de Atacama,Copiapó,19-04-2016,si,-,termoeléctrica,"Vidal Tejero,Pastora Almeria,Ismael Herrero,Salma Re,Alexandre Aragon"
2,Independence Holding Company,-39.39264851,-70.93554426,II de Antofagasta,San Pedro de Atacama,12-06-1987,si,-,nuclear,"Teofilo Ocaña,Aicha Mecinas,Jesus Antonio Herranz,Adelina Lefter,Fermin Beltran"
2,"Midland States Bancorp, Inc.",-34.33874333,-70.15395928,II de Antofagasta,Taltal,10-01-1998,si,-,termoeléctrica,"Luis Angel Mata,Pelayo Pazos"
3,Patriot National Bancorp Inc.,-53.41162037,-69.57491598,II de Antofagasta,Tocopilla,11-11-1974,si,-,-,"Jairo Villa,Maria Antonia Niculescu,Jaime Guerrero,Maria Julia Mariñelarena"
1,Talcuna,-38.66487599,-73.03103802,IV de Coquimbo,Paiguano,19-08-1961,si,Cobre,-,"Jonatan Conde,Aurora Castellot,Elizabeth Truchado,Marc Aguilar"
3,"Blackhawk Network Holdings, Inc.",-45.02246855,-75.49329275,XII de Magallanes y de la Antártica Chilena,Punta Arenas,02-08-1978,si,-,-,"Fernando Jose Recio,Clotilde Oyaga,Guillem Cordero"
3,Natl Westminster Pfd,-36.51659763,-73.05176744,XII de Magallanes y de la Antártica Chilena,Cabo de Hornos,21-12-1963,si,-,-,"Xavier Gallardo,Gloria Maria Cabalgante,Antonio Miguel Riera,Paulina Dorobantu,Isaias Olmo"
3,"AMC Entertainment Holdings, Inc.",-32.15450946,-71.67009816,III de Atacama,Tierra Amarilla,17-10-2001,si,-,-,"Nicolas Gimenez,Josep Maria Acosta"
3,Salesforce.com Inc,-49.80974272,-73.15258443,XII de Magallanes y de la Antártica Chilena,Primavera,03-08-1976,si,-,-,"Hugo Mora,Sandra Maria Esteruelas,Alfredo Ibañez,Constantin Andreu"
2,"Ocular Therapeutix, Inc.",-18.20712344,-70.24368891,III de Atacama,Huasco,30-06-1972,si,-,geotérmica,"Juan Miguel Casado,Edurne Pica,Pedro Manuel Roig"
2,"Hawkins, Inc.",-18.95193054,-70.32171306,III de Atacama,Chañaral,06-10-1987,si,-,nuclear,"Pedro Miguel Rovira,Jesus Miguel Valenzuela,Leticia Lalwani,Hicham Cuadrado"
1,Colico Sur,-52.94103,-73.93599634,VIII del Bío-Bío,Tucapel,28-11-1987,si,Carbón,-,"Abdellah Casanova,Antonio Francisco Madrid,Adela Barberia,Jose Luis Perez"
1,El Peñón,-24.07753673,-71.66921793,II de Antofagasta,Tocopilla,06-07-1994,si,Oro,-,"Driss Valdes,Marco De La Torre,Dolores Oyanguren,Isidoro Pons"
2,CoreSite Realty Corporation,-17.62297702,-73.80370682,XII de Magallanes y de la Antártica Chilena,Porvenir,23-06-1963,si,-,geotérmica,"Agustin Flores,Veronica Rael,Juan Alberto Sala,Maria Mar Chelaru,Bartolome Mateos"
2,Western Alliance Bancorporation,-46.43216631,-70.49138637,II de Antofagasta,Mejillones,29-09-1993,si,-,solar,"Juan Vicente Calero,Tamara Valldeperas,Edgar Leal,Maria Reyes Pare,Antonio Maria Lafuente"
2,Alliance National Municipal Income Fund Inc,-49.06597315,-68.1586654,I de Tarapacá,Camiña,09-11-1967,si,-,termoeléctrica,"Xabier Montoya,Tomasa Baucells,Arnau Cuesta,Rachida Evangelio"
2,iShares 20+ Year Treasury Bond ETF,-51.14222733,-70.51192856,III de Atacama,Tierra Amarilla,10-05-1990,si,-,hidroeléctrica,"Josep Lorenzo,Agueda El Baroudi,Pau Sierra,Helena Gabirondo,Pedro Manuel Roig"
3,Envision Healthcare Corporation,-32.25602205,-73.70938746,IV de Coquimbo,Río Hurtado,19-11-1974,si,-,-,"Marc Aguilar,Miriam Zorrozua,Jose Ignacio Crespo,Merce Alabort,Luciano Galindo"
1,SQM - Pampa Blanca,-54.76566051,-70.09450066,II de Antofagasta,Tocopilla,11-10-1996,si,Yodo,-,"Lucas Rey,Erica Coruña,Lucas Rey,Ines Maria Revollo,Jose Eduardo Piñero"
1,Lomas Bayas,-40.93401642,-70.91297411,II de Antofagasta,San Pedro de Atacama,06-05-1954,si,Cobre,-,"Agustin Flores,Maria Sol Andronache,Patricio Miralles,Pablo Jose Figueroa"
3,"FairPoint Communications, Inc.",-51.34889643,-71.7560449,IV de Coquimbo,Andacollo,30-12-1992,si,-,-,"Fabian Solis,Amelia Nodal,Yanira Sanchez Rey,Aquilino Guijarro"
3,Arlington Asset Investment Corp,-52.1926009,-70.02288822,II de Antofagasta,Ollagüe,25-08-1997,si,-,-,"Mercedes Mije,Jose Andres Asensio,Sandra Maria Esteruelas,Amador Soria"
1,Andina,-24.32664962,-73.57833754,V de Valparaíso,Villa Alemana,22-07-1961,si,Cobre,-,"Camilo Ventura,Miren Zuriarrain,Modesto Polo,Antonia Villamañan,Ferran Marco"
1,Celite - Carol,-45.99004483,-69.84882794,XV de Arica y Parinacota,Camarones,22-05-2001,si,Diatomitas,-,"Christian Palacios,Maria Consolacion Villagarcia,Unai Galvez,Irene Herrmann"
3,Tekla Healthcare Opportunies Fund,-32.62408895,-69.7066942,III de Atacama,Tierra Amarilla,28-12-2008,si,-,-,"Guillem Cordero,Carlos Alberto Villanueva"
2,American Homes 4 Rent,-36.60213838,-69.67858338,II de Antofagasta,Calama,12-09-1963,si,-,solar,"Luis Enrique Muñiz,Roser Bayot,Fermin Beltran,Melania Yudego,Modesto Polo"
2,"support.com, Inc.",-43.05898659,-68.61561527,I de Tarapacá,Alto Hospicio,01-11-2000,si,-,mareomotriz,"Luis Javier Carbonell,Maria Jesus Amezua,Maria Azucena Hamido,David Martinez"
3,Nuveen Floating Rate Income Fund,-16.75485413,-71.16848181,III de Atacama,Vallenar,12-07-1966,si,-,-,"Yago Alfaro,Yago Alfaro,Ana Cristina Conill"
2,"Hurco Companies, Inc.",-53.75776763,-71.28707576,III de Atacama,Copiapó,03-01-2001,si,-,termoeléctrica,"Hamid Sole,Rosa Ana Hernansaiz,Aleix Burgos,Maria Rosa Montala,Saturnino Chen"
3,"Littelfuse, Inc.",-38.5166006,-71.30822182,IV de Coquimbo,Salamanca,05-12-1969,si,-,-,"Ariadna Djalo,Rogelio Arenas,Marius Fraile"
2,Kraton Corporation,-46.75479779,-71.15166944,II de Antofagasta,Ollagüe,19-06-1989,si,-,hidroeléctrica,"Hipolito Morillo,Marta Maria Arillo,Monserrat Kanoute,Urbano Pla"
2,Applied DNA Sciences Inc,-39.91924724,-73.30630723,IV de Coquimbo,Canela,08-12-1963,si,-,mareomotriz,"Marcial Pinto,Rosa Ana Hernansaiz,Carlos Antonio Salcedo"
2,Blackstone GSO Long Short Credit Income Fund,-53.59601847,-74.48174488,V de Valparaíso,Puchuncaví,27-01-1984,si,-,mareomotriz,"Jose Manuel Alvarez,Avelina Laviana,Rufina Iso,Bilal Jorge"
3,"Chegg, Inc.",-40.36010157,-72.97417772,V de Valparaíso,Casablanca,04-01-2015,si,-,-,"Omar Abad,Estefania Monis,Aitor Vargas,Judit Dilme,Jose Fernando Carrera"
3,"Vectrus, Inc.",-49.70049363,-68.28510012,I de Tarapacá,Camiña,19-09-1958,si,-,-,"Salma Re,Manuel Jesus Andres,Maria Mar Chelaru,Marcel Angulo"
2,Yahoo! Inc.,-50.86661529,-70.95263054,II de Antofagasta,Ollagüe,11-01-1961,si,-,geotérmica,"Gorka Martos,Micaela Eriksson,Julio Peña,Candida Schulze,Gabriel Vega"
3,CVS Health Corporation,-50.66032276,-69.03531431,I de Tarapacá,Pozo Almonte,08-08-1960,si,-,-,"Benedicta Gil Ortega,Aurelio Rico,Silvia Dobrev"
3,"Commerce Bancshares, Inc.",-47.76020288,-70.15008743,II de Antofagasta,María Elena,20-04-2016,si,-,-,"Nicolas Gimenez,Maria Dolors Rina,Izan Juan,Justo Luna"
3,"Sarepta Therapeutics, Inc.",-29.27055799,-70.38725328,III de Atacama,Freirina,07-01-1976,si,-,-,"Biel Duarte,Sheila Batalle,Saturnino Chen,Pol Costa"
1,Romeral,-17.70796623,-73.70450394,Metropolitana de Santiago,Talagante,18-05-1973,si,Yeso,-,"Higinio Dorado,Flora Tsvetkov,Iris Rostoll,Oliver Moral"
3,Texas Pacific Land Trust,-35.32999827,-72.00211361,II de Antofagasta,María Elena,18-04-1961,si,-,-,"Augusto Tena,Gregorio Roman,Raimundo Barrios"
2,Esterline Technologies Corporation,-37.71621836,-72.31495104,III de Atacama,Caldera,15-03-1984,si,-,solar,"Antonio Luis Velazquez,Markel Pizarro,Otilia Sambola,Juan Antonio Ortega"
2,Silicon Motion Technology Corporation,-32.76764967,-71.47415533,II de Antofagasta,Sierra Gorda,17-11-2010,si,-,geotérmica,"Saturnino Chen,Amaya Liriano,Mustapha Naranjo,Arantxa Canelles"
2,Ceragon Networks Ltd.,-39.56394284,-69.75223962,III de Atacama,Caldera,16-05-1987,si,-,mareomotriz,"Sergi Varela,Micaela Eriksson,Damian Valle,Aicha Mecinas,Abdelaziz Velez"
2,"MiMedx Group, Inc",-51.55577341,-68.68117893,I de Tarapacá,Pozo Almonte,22-07-1954,si,-,mareomotriz,"Juan Antonio Ortega,Guadalupe Lanseros,Cipriano Barreiro,Jose Rafael Sainz"
1,La Pepa,-51.95141748,-71.22207609,III de Atacama,Tierra Amarilla,21-07-2006,si,Oro,-,"Sandra Abarrategui,Rachid Barroso,Beatriz Escarra,Pau Sierra"
1,Jerónimo,-31.77103906,-71.45606195,III de Atacama,Tierra Amarilla,09-01-1976,si,Oro,-,"Juan David Dos Santos,Luz Marina Ardao,Antonia Maria Leach,Roberto Carlos Pino"
1,Sierra Gorda,-29.9037532,-69.20477898,II de Antofagasta,San Pedro de Atacama,16-09-1985,si,Cobre,-,"Claudio Domingo,Lara Salon,Bernardino Palomo,Ibai Gamez"
3,"Waste Management, Inc.",-38.91178905,-71.73239195,VII del Maule,Curanilahue,28-11-1997,si,-,-,"Peter Olmedo,Melania Yudego,Gonzalo Nieto,Ramon Suarez"
1,Andes Travertine,-19.09271584,-69.47178711,II de Antofagasta,Tocopilla,31-10-1992,si,Mármol,-,"Patricio Miralles,Ayoub Moyano,Miriam Zorrozua,Amador Soria"
3,Eagle Bulk Shipping Inc.,-39.69256421,-73.14064804,IV de Coquimbo,Canela,17-11-1987,si,-,-,"Norberto Galvan,Vicenta Lascu,Karim Criado,Celestina Pegueroles,Gumersindo Pavon"
1,SQM - Nueva Victoria,-54.73005883,-70.54483001,I de Tarapacá,Alto Hospicio,21-08-1993,si,Yodo,-,"Ceferino Alcala,Inocencia Renes,Muhammad Arevalo,Piedad Cabau,Manuel Rodriguez"
2,"Dupont Fabros Technology, Inc.",-24.76562075,-73.72311695,V de Valparaíso,Villa Alemana,02-04-1991,si,-,solar,"Ion Cuenca,Mihai Vaquero,Felix Fuentes"
2,Brookfield Global Listed Infrastructure Income Fund,-54.90481689,-72.99829869,IV de Coquimbo,Vicuña,06-05-2013,si,-,geotérmica,"Eugenio Rojas,Africa Naim,Eloy Aparicio,Arantxa Canelles,Miguel Angel Gutierrez"
2,"Impax Laboratories, Inc.",-48.59547852,-73.78895577,VIII del Bío-Bío,Alto Biobío,04-08-2004,si,-,nuclear,"Pedro Pablo Cobos,Guadalupe Lanseros,Juan Lopez,Angeles Mañeru"
3,"Everspin Technologies, Inc.",-39.18346766,-67.82215525,XV de Arica y Parinacota,Arica,28-06-1994,si,-,-,"Jose Francisco Velasco,Patricia Baumann,Brian Castellanos"
1,Ministro Hales,-20.18310356,-69.91162467,II de Antofagasta,Calama,27-04-1980,si,Cobre,-,"Faustino Murillo,Victor Manuel Pastor,Davinia Linaje"
1,SQM - Yumbes,-46.80526688,-71.17699473,II de Antofagasta,Mejillones,11-08-1978,si,Nitratos,-,"Constantino Carretero,Driss Valdes,Jose Joaquin Barrera"
2,Nabriva Therapeutics AG,-44.5237386,-73.67953291,VIII del Bío-Bío,San Rosendo,02-03-1986,si,-,hidroeléctrica,"Marcelina Capellades,Daniel Hernandez,Ainhoa Aumente,Francisco Antonio Ramon"
2,"OraSure Technologies, Inc.",-22.99538727,-69.27296898,I de Tarapacá,Iquique,22-03-1966,si,-,hidroeléctrica,"Erik Zapata,Maria Nieves Lalana"
1,Radomiro Tomic,-33.39540661,-70.61147918,II de Antofagasta,Sierra Gorda,27-10-1981,si,Cobre,-,"Sebastian Ferrer,Juan Bautista Paredes,Natividad Carabaño,Vasile Ordoñez"
3,PrimeEnergy Corporation,-51.91507329,-70.82429759,III de Atacama,Freirina,05-07-1966,si,-,-,"Jose Jesus Chaves,Monica Holt,Tania Gangoso,Ioan Gimeno"
3,TICC Capital Corp.,-46.65052586,-69.74814838,II de Antofagasta,Mejillones,31-05-1956,si,-,-,"Mikel Pereira,Laila Peyro,Juan Dios Clemente,Elena Tricio,Carlos Antonio Salcedo"
3,"Pinnacle Financial Partners, Inc.",-32.01134156,-69.05264329,I de Tarapacá,Huara,02-11-1980,si,-,-,"Manuel Jose Cardenas,Nagore Merelas,Leandro Caceres,Delfina Paulet,Joel Contreras"
2,"HCA Healthcare, Inc.",-43.29197132,-71.95914899,II de Antofagasta,Antofagasta,30-08-1965,si,-,termoeléctrica,"Hamza Barrio,Maria Concepcion Avellana,Juan Fernando Pena,Maximiliano Amaya"
3,Kopin Corporation,-50.06681348,-71.288365,III de Atacama,Alto del Carmen,24-12-1978,si,-,-,"Maria Prado Tabuyo,Nil Catalan,Loreto Urabayen,Hamza Barrio"
2,"Commercial Vehicle Group, Inc.",-35.62259333,-71.60991232,II de Antofagasta,María Elena,08-05-1991,si,-,hidroeléctrica,"Celso Falcon,Leire Crusat,Ruben Medina,Regina Blaj"
1,Can Can,-49.83601833,-71.12592996,III de Atacama,Alto del Carmen,10-04-2016,si,Oro,-,"Alfonso Mendez,Agustina Rodao,Jairo Villa,Elisabet Kausar,Joseba Palma"
2,"The Travelers Companies, Inc.",-29.38267045,-70.83420453,III de Atacama,Freirina,06-11-1980,si,-,solar,"Juan Ignacio Simon,Gustavo Zamora,Debora Cerron"
3,BlackRock Municipal Target Term Trust Inc. (The),-39.21827739,-71.02138421,II de Antofagasta,San Pedro de Atacama,31-03-1955,si,-,-,"Estrella Duñabeitia,Clemente Vela,Maria Trinidad Lup,Pol Costa"
1,Quebrada Blanca,-50.57327772,-68.91799663,I de Tarapacá,Pozo Almonte,17-01-1987,si,Cobre,-,"Pascual Guerra,Itziar Gorbea"
1,CMP - Cerro Negro Norte,-30.27265127,-71.39812945,III de Atacama,Freirina,26-09-1961,si,Hierro,-,"Jon Casas,Rosa Rosino,Victor Jose De Miguel,Sheila Batalle,Iago Singh"
3,Nuveen Energy MLP Total Return Fund,-52.81861719,-74.37026443,V de Valparaíso,Puchuncaví,16-02-1972,si,-,-,"Tomas Cabrera,Irati Perruca,Juan Alberto Sala"
2,Global Partner Acquisition Corp.,-50.89461916,-70.77945522,I de Tarapacá,Colchane,06-02-2009,si,-,termoeléctrica,"Jose Enrique Manzano,Fabiola Dumbrava,Jose Ramon Carrasco,Jose Pedro Huertas"
2,3M Company,-47.32142188,-72.89968237,Metropolitana de Santiago,El Monte,05-05-1950,si,-,solar,"Ion Cuenca,Purificacion Rodriguez Bobada,Jennifer Apostu,Marco De La Torre"
1,La Productora,-45.92687329,-71.44643519,III de Atacama,Diego de Almagro,26-12-2018,si,Cobre,-,"Isabel Maria Cotaina,Carlos Ruiz,Visitacion De La Prida"
1,Cerro Imán,-39.91479342,-70.71904433,III de Atacama,Caldera,12-08-1960,si,Hierro,-,"Edgar Leal,Antonio Luis Velazquez,Remedios Caton"
1,SQM - María Elena,-30.72064609,-69.19189683,II de Antofagasta,Ollagüe,08-02-1961,si,Nitratos,-,"Jose Luis Perez,Eva Maria Auria,Serafin De La Cruz"
3,"Biocept, Inc.",-34.82049098,-73.76922988,XII de Magallanes y de la Antártica Chilena,Timaukel,13-08-1994,si,-,-,"Guillermo Campos,Pilar Bedialauneta,Engracia Tolos"
2,Cummins Inc.,-29.09117012,-68.89030305,II de Antofagasta,San Pedro de Atacama,01-05-1956,si,-,nuclear,"Marcos Antonio Bartolome,Diana Matanza,Ana Rosa Triado,Juan Gabriel Ferrero"
3,"Arista Networks, Inc.",-47.95224885,-72.625789,III de Atacama,Vallenar,24-09-1972,si,-,-,"Basilio Requena,Maria Cruz Miteva,Iñaki Blazquez"
3,"ILG, Inc",-42.40115957,-69.27629579,II de Antofagasta,San Pedro de Atacama,24-04-1983,si,-,-,"Aziz Garzon,Silvia Maria Camuña,Ibon Salguero,Maria Encarnacion Bahri"
1,Lambert,-52.85135542,-71.64256207,IV de Coquimbo,Andacollo,05-07-1960,si,Cobre,-,"Cristian Hidalgo,Alfonsa Relloso,Jose Rafael Sainz,Macarena Diaz Campo,Ibrahim Paez"
1,Caleta El Cobre,-35.86420182,-70.51754931,II de Antofagasta,Calama,01-02-1984,si,Cobre,-,"Jose Francisco Velasco,Anabel Rodriguez Peral,Angeles Mañeru,Jose Enrique Manzano"
1,Fertón,-47.48875104,-72.10622211,Metropolitana de Santiago,El Monte,03-06-1955,si,Yeso,-,"Ian Alcantara,Magdalena Chahlal,Bonifacio Arjona,Samira Arabaolaza,Juan Andres Saavedra"
3,Moog Inc.,-18.50708785,-70.02931389,III de Atacama,Huasco,28-11-1967,si,-,-,"Feliciano Villegas,Maria Eugenia Corado,Jose Rafael Sainz"
3,"LM Funding America, Inc.",-37.42139201,-74.82919835,XIV de Los Ríos,Río Bueno,14-11-1954,si,-,-,"Narciso Ballester,Paola Maset,Inocencio Llorens,Alicia Ariznabarreta,Octavio Tapia"
3,"PrivateBancorp, Inc.",-34.02539502,-69.21071103,II de Antofagasta,Sierra Gorda,05-09-1981,si,-,-,"Mariona Sora,Jaime Guerrero,Emilio Leon"
1,Coirón,-22.98723402,-73.14125365,XII de Magallanes y de la Antártica Chilena,Río Verde,05-10-1985,si,Hidrocarburos,-,"Isabel Maria Cotaina,Eva Sanandres,Said Maldonado"
2,Microsemi Corporation,-50.65226007,-72.76420235,XII de Magallanes y de la Antártica Chilena,Laguna Blanca,17-03-1989,si,-,nuclear,"Viorel Vives,Petra Aomar,Joaquim Paz,Maria Socorro Meno,Jordi Vidal"
3,Zion Oil & Gas Inc,-34.75875536,-71.91521087,IV de Coquimbo,Illapel,22-12-1972,si,-,-,"Dumitru Aznar,Bonifacio Arjona,Adrian Rubio"
2,"Western Refining Logistics, LP",-49.9530586,-73.42275068,Metropolitana de Santiago,San Pedro,20-03-1966,si,-,hidroeléctrica,"Fabian Solis,Maria Estrella Zuheros,Ibon Salguero,Xabier Montoya"
3,"Sierra Oncology, Inc.",-42.85190241,-71.80551464,II de Antofagasta,Antofagasta,22-08-1994,si,-,-,"Marco Antonio Tomas,Jesus Antonio Herranz,Isidora Fabero,Jose Luis Perez"
1,Dos Amigos,-54.30040972,-71.1931064,III de Atacama,Freirina,01-08-1973,si,Cobre,-,"Salud Mollo,Damian Valle,Maria Amparo Anguix,Avelino Ojeda"
3,Abeona Therapeutics Inc.,-46.7224442,-70.81052512,II de Antofagasta,Calama,18-02-1969,si,-,-,"Driss Valdes,Noemi Ardoy"
3,Merus Labs International Inc.,-24.61575569,-72.93952133,II de Antofagasta,Tocopilla,05-10-1976,si,-,-,"Francisco Manuel Vera,Ingrid Bonamusa,Iago Singh,Maria Josefa Justes,Borja Lara"
2,First Trust Multi-Asset Diversified Income Index Fund,-54.29723561,-70.04511056,II de Antofagasta,Tocopilla,07-04-2007,si,-,mareomotriz,"Unai Galvez,Alexia Merello,Juan Carlos Serrano,Maite Irun"
3,Imax Corporation,-53.1657583,-71.94698392,III de Atacama,Freirina,01-08-1968,si,-,-,"Lorenza Lizundia,Mario Gallego,Filomena El Mahi,Carlos Alberto Villanueva"
3,"H&R Block, Inc.",-30.42590561,-68.63653997,II de Antofagasta,Taltal,11-06-1986,si,-,-,"Antonio Manuel Mateo,Laura Maria Saladie,Rafaela Mitu"
3,Northrop Grumman Corporation,-36.6766771,-73.89200318,V de Valparaíso,Concón,16-04-1951,si,-,-,"Hilario Ayala,Lola Sellers,Luis Angel Mata,Luisa Jaramago,John Rebollo"
3,Diana Shipping inc.,-45.48591239,-70.96372918,XV de Arica y Parinacota,Camarones,25-02-2010,si,-,-,"Kevin De La Fuente,Isabel Pelado,Julio Peña,Maria Montserrat Liquete"
3,"Spark Energy, Inc.",-18.22174509,-69.20838488,I de Tarapacá,Pozo Almonte,01-07-1987,si,-,-,"Cesareo Cardona,Maria Auxiliadora De Salas,Benito Segura"