nombre,latitud,longitud,comuna,fecha apertura,operativo
"SolarEdge Technologies, Inc.",-40.61124533,-71.9763994,Padre Hurtado,18-01-2012,si
Azul S.A.,-38.371222499999995,-72.54586882,Curanilahue,08-02-1963,si
Franke,-46.57220413,-70.57548990000001,Calama,09-04-2016,si
AdvisorShares Market Adaptive Unconstrained Income ETF,-19.48757504,-73.46582409,Chile Chico,06-10-1992,si
Kilroy Realty Corporation,-45.98246139,-71.80516601,Huasco,16-09-1962,si
Anheuser-Busch Inbev SA,-53.79350998,-69.22893626,Antofagasta,23-05-1977,si
Clifton Bancorp Inc.,-46.1348098,-73.54064138,Valparaíso,26-02-1952,si
San Gerónimo,-50.93885489,-71.78372396,La Higuera,08-10-2018,si
Elenita,-51.48257045,-69.73756147,Ollagüe,16-12-1997,si
Catamutún,-38.22877545,-74.53154567,Río Bueno,10-04-2017,si
United States Cellular Corporation,-46.84178722,-72.6409599,La Serena,05-02-1993,si
San José,-17.08866568,-70.75499991,Vallenar,28-05-1982,si
Isla Guarello,-44.52950651,-74.49207624,Punta Arenas,28-02-1970,si
Las Arenitas,-37.93703952,-73.48497148,Curanilahue,25-09-1972,si
Park-Ohio Holdings Corp.,-41.85811607,-72.68224325,Monte Patria,12-05-2002,si
The Community Financial Corporation,-30.33028141,-74.24155040000001,Isla de Maipo,07-03-1968,si
"National American University Holdings, Inc.",-44.82845024,-69.71109939,María Elena,27-02-1959,si
Garrison Capital Inc.,-42.09990962,-69.28519278,Antofagasta,06-09-1955,si
Array BioPharma Inc.,-34.828287100000004,-69.65815707,Taltal,22-12-2006,si
Unisys Corporation,-31.55130785,-68.11280481,Huara,24-04-1976,si
PureFunds ETFx HealthTech ETF,-18.30750076,-68.71016001,Tocopilla,11-09-2016,si
"Dynex Capital, Inc.",-46.625024700000004,-71.20320602,Calama,01-03-1957,si
Walter Investment Management Corp.,-53.36045872,-71.65370501,Copiapó,03-09-2012,si
"Avon Products, Inc.",-42.74645755,-71.60494713,Tocopilla,16-02-1978,si
"Clear Channel Outdoor Holdings, Inc.",-21.93420356,-71.74937316,Quilpué,26-01-1989,si
EQT Corporation,-24.4253265,-71.77113902,Vallenar,19-08-1985,si
SQM - Mapocho,-31.96469031,-69.29279809,Huara,08-06-1962,si
Las Cenizas,-37.70085343,-73.56228633,Concón,23-02-1977,si
"Sportsman's Warehouse Holdings, Inc.",-46.2616331,-71.64164013,Huasco,30-03-1990,si
"Xenia Hotels & Resorts, Inc.",-51.796099,-72.47764133,La Higuera,20-03-2002,si
Lions Gate Entertainment Corporation,-27.10631744,-70.2652307,Diego de Almagro,15-10-1994,si
Inacesa - El Jilguero,-17.44733374,-70.47032369,Huasco,12-09-1958,si
Don Alberto,-32.66658139,-73.34546353,Río Hurtado,11-05-1979,si
Michilla,-27.48280116,-70.56344947,Mejillones,03-02-1956,si
Marine Petroleum Trust,-30.37095291,-69.93180455,Ollagüe,28-04-2019,si
Tuina,-45.29357894,-69.17026643,María Elena,13-12-2007,si
Intracampos,-49.82821022,-74.30242654,Primavera,16-02-1979,si
Westpac Banking Corporation,-31.50027707,-69.55187546,Calama,10-03-1974,si
"Silicon Laboratories, Inc.",-38.8201632,-70.50291327,Salamanca,07-04-2019,si
E*TRADE Financial Corporation,-17.69804781,-70.47765396,Vallenar,29-04-1990,si
Toll Brothers Inc.,-25.45210144,-74.98904326,Los Álamos,05-06-1950,si
CMP - Boquerón Chañar,-37.4788188,-71.47867599,Caldera,13-12-1982,si
Peckett,-38.13105043,-72.83364805,Cabo de Hornos,03-11-1953,si
SL Green Realty Corporation,-23.08275252,-69.42137751,Iquique,29-05-1987,si
"Chunghwa Telecom Co., Ltd.",-16.07171874,-71.26601916,Taltal,13-11-1959,si
"Forterra, Inc.",-40.07139215,-70.83923990000001,San Pedro de Atacama,16-10-2015,si
Refugio,-38.87962997,-71.56971803,Diego de Almagro,14-01-1979,si
"China Lodging Group, Limited",-30.82234614,-68.38792591,Huara,21-09-1950,si
"International Seaways, Inc.",-24.39457601,-72.24669649,Panguipulli,29-08-2010,si
"Financial Engines, Inc.",-46.38747254,-70.75437214,Camiña,18-06-1979,si
Nuveen Connecticut Quality Municipal Income Fund,-50.96642298,-70.49199065,Tierra Amarilla,29-05-1955,si
La Coipa,-27.59189821,-71.20349032,Diego de Almagro,11-02-1970,si
Dorado,-28.39381633,-73.98647199999999,San Gregorio,15-12-1953,si
Mackinac Financial Corporation,-43.64479261,-73.81374064,Ovalle,06-11-1988,si
"Cogentix Medical, Inc.",-19.95010196,-73.64662812,María Pinto,24-04-1975,si
Cerro Colorado,-24.208011600000003,-68.50685053,Pica,14-09-1955,si
Dynatronics Corporation,-18.63187163,-72.91612967,Santa Bárbara,01-05-1964,si
R.R. Donnelley & Sons Company,-29.11125862,-71.23158585,María Elena,26-04-1966,si
Trongol,-29.59632621,-73.03948187,Yumbel,21-06-2004,si
"FTI Consulting, Inc.",-47.14991504,-71.68093803,Combarbalá,10-12-1996,si
Inacesa - El Way,-35.29287156,-71.086893,Antofagasta,03-09-1974,si
"RiverNorth Opportunities Fund, Inc.",-31.26504384,-68.84962811,Taltal,21-05-2017,si
AmerisourceBergen Corporation (Holding Co),-51.24200404,-70.28150702,Colchane,14-06-2004,si
"Evolving Systems, Inc.",-52.14362392,-72.16782523,Andacollo,21-01-1991,si
"UMH Properties, Inc.",-42.64166805,-69.65466815,San Pedro de Atacama,09-12-1971,si
Arenal,-17.15562623,-72.95433214,Porvenir,20-04-2013,si
Suncor EnergyInc.,-53.43772961,-72.02622649,Freirina,18-09-1983,si
Elkhorn Commodity Rotation Strategy ETF,-23.69506956,-69.47807235,Iquique,02-08-1989,si
La Patagua,-23.56366992,-72.74754506,Juan Fernández,07-11-1990,si
Terreno Realty Corporation,-51.05668234,-69.94491088,Colchane,26-11-1995,si
"CenterPoint Energy, Inc.",-27.46471657,-71.45300923,Mejillones,08-06-1982,si
Enel Generacion Chile S.A.,-29.99809319,-73.58981351,Quintero,20-10-1957,si
"Edge Therapeutics, Inc.",-42.71445035,-70.47732534,Mejillones,31-03-1967,si
"Under Armour, Inc.",-37.56572452,-72.73158473,Caldera,25-05-2007,si
El Volcán,-30.31364111,-73.42476020000001,Isla de Maipo,24-03-1960,si
El Soldado,-21.53551614,-72.07976852,Quilpué,16-04-2004,si
KT Corporation,-17.99072303,-73.16470936,Talagante,12-02-1956,si
ACF - Lagunas,-33.13604943,-69.34122626,Huara,05-09-1957,si
"First Hawaiian, Inc.",-37.35857076,-71.31032115,Caldera,11-10-1987,si
Randgold Resources Limited,-48.17720516,-73.38634755,El Monte,30-10-1971,si
III de Atacama Minerals - Aguas Blancas,-47.31394603,-71.23903468,Sierra Gorda,19-11-1998,si
Urstadt Biddle Properties Inc.,-47.18797047,-73.54860045,Contulmo,16-07-1994,si
Chimberos,-19.29980419,-70.51275141,Chañaral,01-01-2016,si
"JA Solar Holdings, Co., Ltd.",-38.70897824,-69.63632309,Caldera,05-10-2017,si
CMP - Algarrobo,-30.07242537,-71.8258599,Alto del Carmen,30-05-1995,si
"Idera Pharmaceuticals, Inc.",-23.89837221,-68.22308586,Pica,07-01-2008,si
Montecristo,-42.76191411,-71.15455864,Antofagasta,08-06-1961,si
Special Opportunities Fund Inc.,-22.69430514,-71.58466488,Quilpué,09-09-1968,si
AGCO Corporation,-51.31250495,-72.09715256,Copiapó,23-04-1963,si
Lenga,-19.85382799,-74.1091388,Natales,14-07-1980,si
Julia,-30.42536025,-70.20419998,María Elena,23-04-1966,si
"NextEra Energy, Inc.",-29.20278204,-73.96821118,Yumbel,06-04-1971,si
"Diamond Hill Investment Group, Inc.",-49.85799239,-72.76516535,Laguna Blanca,25-04-1999,si
Jazz Pharmaceuticals plc,-23.34368456,-71.94105884,Punitaqui,08-12-2004,si
Laguna Siren,-24.11799631,-69.35044973,Iquique,30-04-1986,si
"Universal Stainless & Alloy Products, Inc.",-47.36444382,-73.38158073,Cañete,22-01-1958,si
Alhué,-41.28151908,-72.89936633,Padre Hurtado,27-04-1977,si
United Insurance Holdings Corp.,-23.96324697,-68.69023905,Iquique,18-10-2011,si
Chuquicamata,-29.63681473,-69.07867499,Taltal,21-12-1963,si
Maganeso III de Atacama,-32.76774456,-72.94945547,Los Vilos,28-02-1954,si
SCL Chemetall,-47.20950153,-70.76035423,María Elena,15-08-1964,si
Galectin Therapeutics Inc.,-54.87199607,-70.54691361,Taltal,01-03-2017,si
Yelp Inc.,-43.11047715,-70.03352768,Pica,24-06-1977,si
China Mobile (Hong Kong) Ltd.,-32.31321107,-69.75707645,Calama,21-06-1976,si
Pirquitas,-38.73928048,-69.3541644,Arica,06-04-2000,si
Collahuasi,-43.76417517,-69.46927861,Pica,22-08-2003,si
Central Garden & Pet Company,-33.00192116,-73.80536773,Los Vilos,27-10-1962,si
Faride,-30.49406062,-70.09795413,Taltal,07-06-1997,si
María Elisa,-46.67054079,-72.97304111,Contulmo,03-03-1997,si
HollyFrontier Corporation,-39.14820194,-72.40334635,Paiguano,22-11-1983,si
"Recon Technology, Ltd.",-41.59030839,-69.17650406,Antofagasta,09-11-1952,si
JM Global Holding Company,-46.43036646,-71.41331194,Calama,13-02-1957,si
Del Fierro,-46.58411776,-73.65920956,Cañete,01-08-2003,si
"Hub Group, Inc.",-41.73703364,-71.12153259,Mejillones,02-08-1994,si
Manantial,-45.37989704,-69.54898275,Camarones,17-11-1957,si
Credit Acceptance Corporation,-31.38911698,-69.24544403,Taltal,02-06-1965,si
Nuveen AMT-Free Municipal Value Fund,-22.33954425,-71.6613863,Huasco,18-11-2004,si
"Mirna Therapeutics, Inc.",-34.44832831,-73.48296944,Timaukel,23-07-1978,si
"Kura Oncology, Inc.",-25.22791263,-71.84278768,Codegua,26-12-1956,si
First Trust Senior Loan Fund ETF,-45.77912208,-70.46570244,Camarones,13-07-1986,si
"Ulta Beauty, Inc.",-24.78193519,-69.05397424,Pica,04-09-1985,si
Comcast Corporation,-23.3210794,-69.03344193,Pica,21-01-1999,si
Los Pelambres,-42.32243113,-71.80459968,Monte Patria,19-04-1972,si
Algorta,-53.10318907,-70.05907216,Antofagasta,07-10-1959,si
AbbVie Inc.,-47.65017997,-69.83986866,Colchane,24-01-2009,si
Virco Manufacturing Corporation,-54.88657627,-69.50414959999999,Alto Hospicio,19-12-1998,si
Mantos de la Luna,-42.82090275,-69.76150537,San Pedro de Atacama,04-12-1999,si
"Fiserv, Inc.",-45.07676689,-71.8082965,Diego de Almagro,17-05-1972,si
Quiborax - Ascotán,-23.13717068,-69.95653874,Antofagasta,29-02-2008,si
CMP - El Laco,-42.8435721,-71.19728748,Mejillones,29-11-2018,si
Tata Motors Ltd,-28.2179559,-71.50560249,Mejillones,14-10-1991,si
Eaton Vance Corporation,-47.85400498,-71.1090181,Sierra Gorda,18-02-2005,si
Peabody Energy Corporation,-48.88509748,-69.13073419,Camiña,16-07-2017,si
Vanguard Russell 3000 ETF,-49.69909901,-72.85156322,San Pedro,06-12-1994,si
Voya Global Equity Dividend and Premium Opportunity Fund,-24.66738408,-73.18711546,Villa Alemana,14-06-1973,si
First Trust International Multi-Asset Diversified Income Index,-18.4703499,-68.72721423,Tocopilla,11-12-1994,si
First Trust Nasdaq Retail ETF,-34.24063231,-72.60813666,Coquimbo,02-03-1966,si
Orbotech Ltd.,-27.31596891,-70.96487997,Diego de Almagro,10-03-1959,si
La Perla,-49.53720632,-72.44283924,San Pedro,08-11-1992,si
iShares MSCI EM ESG Optimized ETF,-50.41748466,-71.36958532,Alto del Carmen,06-03-1981,si
PowerShares Golden Dragon China Portfolio,-28.8698376,-74.63281440000002,Yumbel,20-09-2010,si
"Texas Capital Bancshares, Inc.",-18.13731948,-73.45570689,Santa Bárbara,11-06-1964,si
Mantos Blancos,-46.1401754,-70.39165648,Ollagüe,13-09-2016,si
Choquelimpie,-37.96750025,-69.52267617,Arica,24-09-1985,si
Novelion Therapeutics Inc.,-24.66135957,-71.79570962,Vallenar,01-11-2000,si
Double Eagle Acquisition Corp.,-45.70169924,-72.52887097,Diego de Almagro,16-11-2005,si
Celgene Corporation,-32.02967643,-72.26932097,Tierra Amarilla,25-10-2014,si
El Tesoro,-34.62424827,-70.77212716,María Elena,27-09-1959,si
Altamira,-53.011809899999996,-70.74491312,Ollagüe,20-09-1952,si
El Salvador,-26.95566592,-70.62948214,Copiapó,30-11-2011,si
Container Store (The),-34.06870467,-69.25877779999999,Sierra Gorda,04-09-1997,si
Royal Caribbean Cruises Ltd.,-41.36405867,-72.88275487,Padre Hurtado,10-10-2018,si
Sierra Miranda,-17.05555729,-71.25546485,Taltal,17-07-1980,si
El Morro,-23.74250416,-72.57809909999999,Vallenar,18-11-1988,si
Pucobre,-41.80840469,-70.92042281,Alto del Carmen,31-12-1966,si
Corporate Asset Backed Corp CABCO,-47.20766107,-69.38848421,Colchane,02-02-1973,si
"SeaChange International, Inc.",-20.8146013,-73.43119955,Natales,29-01-1953,si
Entercom Communications Corporation,-43.90538222,-67.93186104,Alto Hospicio,22-06-2006,si
La Marcelina,-45.04730088,-68.6226631,General Lagos,27-05-1955,si
Gabriela Mistral,-31.31565918,-70.12268731,Calama,09-10-2006,si
Arch Capital Group Ltd.,-31.03868479,-69.42270489,Ollagüe,01-05-1980,si
Antucoya,-34.808060299999994,-69.73821998,Sierra Gorda,09-09-1961,si
Carola,-22.41636966,-72.69038964,Huasco,29-11-1976,si
PowerShares KBW High Dividend Yield Financial Portfolio,-35.14139984,-72.35758798,Illapel,07-07-2003,si
Spence,-46.48103337,-70.46400352,Calama,03-01-1989,si
Cerro Blanco,-24.54405253,-72.11803136,Curacaví,24-02-1953,si
Haldeman - Sagasca,-17.88031716,-70.02811716,Pozo Almonte,23-06-1977,si
Victoria,-48.80221815,-72.95778926,Alto Biobío,12-10-2014,si
L.B. Foster Company,-38.82480482,-71.58608915,Diego de Almagro,09-05-1992,si
Regal Entertainment Group,-46.71477133,-71.79620512,Ollagüe,20-08-2004,si
Celite - Tana,-23.66594089,-68.43100801,Iquique,11-06-1997,si
iPath US Treasury Long Bond Bear ETN,-40.35185122,-72.80959953,Casablanca,31-08-2009,si
Cambrex Corporation,-47.12542695,-72.06503108,Sierra Gorda,15-12-1960,si
Pure Cycle Corporation,-37.14424689,-72.54907999,Cabo de Hornos,19-05-1991,si
Ojos del Salado,-27.35831322,-72.08958712,Chañaral,12-12-1997,si
Caupolicán,-34.53425139,-74.13740142,Timaukel,26-04-1961,si
EPR Properties,-43.18864931,-70.99239316,Pica,11-05-1960,si
First Trust Emerging Markets Small Cap AlphaDEX Fund,-30.53557678,-71.02260317,Alto del Carmen,22-09-2003,si
Aircastle Limited,-46.56347763,-68.72332298,General Lagos,24-05-2013,si
Esperanza,-45.38971199,-69.86726192,Mejillones,20-12-1979,si
BLDRS Asia 50 ADR Index Fund,-31.16445081,-68.37160087,Huara,09-01-2018,si
Western Asset Bond Fund,-26.74654065,-70.42299346,Chañaral,18-03-2001,si
Forum Merger Corporation,-32.94742502,-73.76307958,Rancagua,29-06-1957,si
Nuveen Michigan Quality Municipal Income Fund,-50.09388595,-68.48847426,Pozo Almonte,04-12-1982,si
"Discovery Communications, Inc.",-53.65404297,-73.26718516,Tucapel,30-01-1985,si
Drive Shack Inc.,-51.33607506,-71.89800211,La Higuera,23-11-1952,si
"Mid-America Apartment Communities, Inc.",-53.8656465,-72.79450762,Tucapel,18-12-1974,si
STMicroelectronics N.V.,-43.90888808,-74.44243490000001,San Rosendo,02-12-1982,si
RenaissanceRe Holdings Ltd.,-24.07761632,-73.52356648,Juan Fernández,24-06-1968,si
"LTC Properties, Inc.",-51.29783946,-71.50237003,Freirina,16-06-2018,si
El Guindo,-50.43770014,-73.62178091,Alhué,29-09-1975,si
Cerro Bayo,-21.72358876,-73.86217581,Río Ibáñez,05-11-2016,si
Kite Realty Group Trust,-46.95808708,-71.09731439,María Elena,29-04-2014,si
"XO Group, Inc.",-24.92641372,-72.63476081,Río Verde,22-01-2014,si
SQM Salar,-41.90476211,-71.40707744,Tocopilla,16-06-2002,si
El Abra,-49.12840071,-69.06715874,Mejillones,25-10-1970,si
"Destination XL Group, Inc.",-51.84366508,-71.45974926,Copiapó,27-11-1982,si
Escondida,-40.25595432,-71.12968470000001,San Pedro de Atacama,13-08-2018,si
BLDRS Developed Markets 100 ADR Index Fund,-18.96674942,-72.66627876,Chile Chico,29-06-1978,si
Navío,-29.02393516,-73.58812257,Quintero,07-07-1957,si
"Franklin Financial Network, Inc.",-36.83268638,-71.12683534,Sierra Gorda,13-10-1984,si
Cóndor,-45.93308769,-70.27512236,Putre,16-12-1987,si
Punta de Lobos - Kanita,-48.7080749,-69.02837929,Camiña,24-08-1978,si
Kamada Ltd.,-26.85917867,-71.27095578,Chañaral,05-05-1998,si
Marte Lobo,-50.73155899,-71.52095482,Copiapó,26-06-2010,si
El Toqui,-18.89524832,-73.65479429999999,Chile Chico,20-02-1961,si
Cowen Inc.,-26.50692326,-69.23982757,Copiapó,26-11-2000,si
"Nutanix, Inc.",-22.75120305,-73.71128663,Río Ibáñez,03-08-1954,si
Janus Henderson Small Cap Growth Alpha ETF,-18.655861399999996,-70.75718455,Calama,02-12-1981,si
Chimborazo,-50.34084038,-69.96995666,Ollagüe,07-04-2001,si
Cerro Casale,-54.05804052,-72.16371161,Copiapó,27-06-1984,si
China Cord Blood Corporation,-24.55756186,-74.09087615,Los Álamos,20-10-1968,si
Novanta Inc.,-18.25662271,-69.48914967,Pozo Almonte,15-08-1958,si
CMP - Los Colorados,-29.890693199999998,-72.36810449,Chañaral,21-08-2015,si
U.S. Energy Corp.,-37.23816728,-74.43611003,Río Bueno,05-02-2001,si
NVIDIA Corporation,-42.58984705,-71.93645833,Tirúa,11-01-1996,si
"Argos Therapeutics, Inc.",-36.43390516,-69.29986234,Calama,16-07-1990,si
Guaranty Bancorp,-45.75448464,-70.64443925,Putre,31-05-1964,si
Inseego Corp.,-41.18509248,-70.85637109999999,Alto del Carmen,26-07-1990,si
Peapack-Gladstone Financial Corporation,-28.16579053,-74.53948987,San Gregorio,07-07-1957,si
"German American Bancorp, Inc.",-34.82987584,-72.10349722,Coquimbo,06-01-1989,si
La Picarda,-46.7411032,-70.00575467,Camiña,05-04-2013,si
"Apple Hospitality REIT, Inc.",-52.81944746,-70.19279546,Antofagasta,26-02-1951,si
"TC PipeLines, LP",-23.32492091,-68.26543116,Iquique,04-02-1951,si
"Nustar GP Holdings, LLC",-20.46904993,-74.09165819,María Pinto,28-12-1982,si
Cosayach - Cala Cala,-44.6798846,-68.82300689,Alto Hospicio,28-03-2014,si
Georgia Power Company,-42.73855109,-70.85971668,Tocopilla,13-06-1984,si
PowerShares BuyBack Achievers Portfolio,-31.74765126,-73.25186772,Río Hurtado,29-02-1984,si
Costamare Inc.,-46.42174025,-74.18435217,Cañete,13-09-1969,si
Gilat Satellite Networks Ltd.,-45.78367424,-75.38032149,Antártica,11-05-1955,si
The9 Limited,-55.54343624,-69.83053791,Alto Hospicio,20-11-1961,si
"Taiwan Fund, Inc. (The)",-48.08224171,-73.04903485,Contulmo,08-12-2002,si
Entegra Financial Corp.,-40.87226832,-72.21115048,Monte Patria,01-09-1976,si
Torchmark Corporation,-29.97956124,-71.96526653,Alto del Carmen,07-06-1963,si
SAP SE,-24.59414909,-72.68571232,Juan Fernández,21-03-2003,si
"Appliance Recycling Centers of America, Inc.",-52.80292319,-69.87682299,Ollagüe,25-03-1980,si
Punitaqui,-43.21815285,-73.07526943,Ovalle,29-02-1976,si
Schwager,-45.39717876,-73.82516204,San Rosendo,02-09-1992,si
Old Republic International Corporation,-43.73148185,-69.37467027,Alto Hospicio,21-04-1973,si
"Cleveland BioLabs, Inc.",-39.31051311,-70.78321928,San Pedro de Atacama,11-11-1979,si
Pampa Camarones,-45.02954045,-68.47397968,General Lagos,22-02-2005,si
Bronce de Petorca,-46.76871429,-73.4125935,Valparaíso,14-08-1979,si
"Gabelli Equity Trust, Inc. (The)",-29.09239262,-74.52918534,San Gregorio,03-06-1960,si
Cerro Negro,-53.47278162,-73.54103596,Puchuncaví,02-12-1975,si
Andacollo Cobre,-35.37694761,-71.53827676,Illapel,25-07-1951,si
"Meridian Waste Solutions, Inc",-45.56787716,-67.74744981,General Lagos,21-10-1979,si
"Kayne Anderson Energy Total Return Fund, Inc.",-23.57398446,-72.00715791,Curacaví,22-11-1979,si
Limoneira Co,-22.41457701,-69.34907021,Antofagasta,23-11-2002,si
"First Financial Bankshares, Inc.",-49.40819843,-73.44452398,Primavera,06-02-1969,si
"Cyclacel Pharmaceuticals, Inc.",-54.06178027,-70.36594979,Taltal,20-07-2017,si
Crawford & Company,-54.16098596,-73.44295806,Vicuña,16-08-2005,si
"Delcath Systems, Inc.",-39.17132517,-72.07184672,Diego de Almagro,04-03-1969,si
"Ashford Hospitality Prime, Inc.",-45.841688,-74.24113967,Valparaíso,27-05-1969,si
"Rush Enterprises, Inc.",-30.49560682,-73.22249931,Chañaral,21-11-1957,si
GlaxoSmithKline PLC,-18.47051602,-70.13306378,Chañaral,23-09-1952,si
Great Plains Energy Inc,-33.39907535,-73.6965027,Rancagua,07-08-1959,si
"Urban One, Inc. ",-22.6316032,-69.88975164,Sierra Gorda,21-11-1999,si
Bed Bath & Beyond Inc.,-30.41079413,-72.28140068,Chañaral,17-11-1982,si
PIMCO Dynamic Credit and Mortgage Income Fund,-44.15489593,-73.61271333,Ovalle,19-03-1980,si
Apollo Senior Floating Rate Fund Inc.,-37.20283556,-73.69478663,Concón,25-06-2006,si
Caserones,-31.16089173,-70.89554656,Tierra Amarilla,11-12-1981,si
Linderos,-54.10836128,-72.54131209,Vicuña,15-11-1980,si
Andacollo Oro,-39.40655928,-73.12322375,Canela,15-07-1975,si
Carvana Co.,-30.63543452,-68.32490076,Taltal,16-12-2015,si
Northern Trust Corporation,-33.29786746,-72.0236178,Sierra Gorda,22-01-1979,si
Celite - Tilviche,-47.48083996,-69.78816034,Camiña,04-09-1965,si
El Teniente,-32.10812979,-74.10672937,Rancagua,12-01-1989,si
Neff Corporation,-45.49644381,-76.14144442,Antártica,11-12-1973,si
VictoryShares US 500 Enhanced Volatility Wtd ETF,-29.72839455,-71.02219486,María Elena,27-09-1970,si
Flor de Los Andes,-46.75384618,-71.52360501,Combarbalá,25-07-1954,si
Isla Riesco,-45.53392116,-74.80555265,Antártica,13-08-2000,si
First Trust South Korea AlphaDEX Fund,-24.768336899999998,-71.8845958,Codegua,12-11-1991,si
"PDF Solutions, Inc.",-45.17052541,-69.98027157,Putre,28-02-1979,si
Cabot Corporation,-41.82457563,-70.04926654,Alto del Carmen,29-09-1996,si
Data Processing,-47.59593324,-72.36669104,Vallenar,27-07-1974,si
Iván,-38.11993762,-70.60047994,Sierra Gorda,22-02-1980,si
Cosayach - Negreiros,-50.89317516,-69.80606347,Colchane,16-05-1979,si
Delta,-38.54033002,-71.39594038,Salamanca,07-01-1990,si
Silvercrest Asset Management Group Inc.,-51.64844751,-70.30809486,Ollagüe,15-07-1950,si
Tres Valles,-22.83237098,-72.19113554,Punitaqui,14-10-1998,si
"Enanta Pharmaceuticals, Inc.",-29.29631515,-73.79609293,Quintero,06-06-1976,si
"Safe Bulkers, Inc",-46.75649659,-69.6195718,Mejillones,23-03-1975,si
Pascua,-45.84541746,-72.50348538,Huasco,29-04-1996,si
Biglari Holdings Inc.,-20.51543241,-74.21582041,Natales,07-07-1965,si
"Gray Television, Inc.",-51.06075258,-74.25340939,Alhué,06-10-2004,si
"CatchMark Timber Trust, Inc.",-33.44505908,-72.21041226,Antofagasta,20-08-1990,si
Las Piedras,-43.10144946,-72.68829782,Tirúa,17-11-1982,si
"Western New England Bancorp, Inc.",-37.66461088,-70.62854518,Sierra Gorda,18-02-1999,si
"Shutterstock, Inc.",-23.78497286,-71.87950768,Curacaví,28-11-1986,si
"FSB Bancorp, Inc.",-23.97880405,-73.25941333,Río Verde,18-05-1970,si
SQM - Pedro de Valdivia,-42.57570453,-69.51443977,Antofagasta,23-06-1992,si
United Microelectronics Corporation,-34.30260501,-72.07558777,Antofagasta,21-08-1966,si
"Adams Diversified Equity Fund, Inc.",-23.61028685,-72.34481198,Panguipulli,22-04-1960,si
Tranquilo,-51.13728473,-73.03610548,Laguna Blanca,14-03-2019,si
Guanaco,-22.65293536,-70.66180792,Sierra Gorda,12-06-2008,si
PowerShares Nasdaq Internet Portfolio,-30.58149323,-68.53531036,Huara,21-01-1966,si
Lota,-17.96384615,-73.33109039,Santa Bárbara,13-12-2002,si
Diageo plc,-38.90344507,-68.46931075,Arica,26-11-2015,si
El Tofo,-46.26421645,-72.1887842,La Serena,23-04-2016,si
Fair Isaac Corporation,-19.05572733,-70.1235245,Pozo Almonte,08-04-1952,si
PTC Inc.,-43.92126064,-70.25055601,Pica,30-04-1994,si
E.I. du Pont de Nemours and Company,-52.58694562,-69.53267975,Ollagüe,12-02-1986,si
Stamps.com Inc.,-32.14490051,-70.02574064,Tierra Amarilla,01-11-1982,si
Vina Concha Y Toro,-42.30241952,-72.4703344,Tirúa,21-03-2010,si
"Tootsie Roll Industries, Inc.",-29.7891032,-68.88677317,San Pedro de Atacama,02-12-1971,si
Manto Verde,-37.1680669,-71.99358865,Caldera,15-02-1967,si
"Ellie Mae, Inc.",-46.02318735,-72.31154556,La Serena,25-09-2001,si
"The Chefs' Warehouse, Inc.",-50.31195952,-70.41277162,Ollagüe,13-05-2010,si
Quiborax,-45.4454804,-69.66660029,Putre,04-01-1976,si
"India Fund, Inc. (The)",-17.04318272,-74.71887529,Porvenir,27-02-1986,si
Gladstone Commercial Corporation,-55.47742963,-70.28823355,Alto Hospicio,10-03-2010,si
Check-Cap Ltd.,-19.52616206,-69.96478385,Calama,20-09-1960,si
"Investors Bancorp, Inc.",-50.83989176,-73.62680698,Alhué,22-04-1976,si
"MasTec, Inc.",-23.98766982,-72.31728235,Tocopilla,06-01-1977,si
Las Pataguas,-25.74654418,-72.32445062,Codegua,25-04-1957,si
Las Luces,-53.92453577,-71.07589986,Taltal,21-12-1974,si
DRDGOLD Limited,-46.89029091,-70.91828549,Combarbalá,26-06-2018,si
Johnson & Johnson,-31.24773185,-73.37599763,Isla de Maipo,29-01-1965,si
Cosayach - Soledad,-22.4076122,-69.04604462,Iquique,21-04-2009,si
Nuveen Municipal High Income Opportunity Fund,-38.89603639,-72.87012397,Paiguano,18-10-1962,si
"Herman Miller, Inc.",-22.71390651,-70.05634205,Sierra Gorda,03-12-1957,si
III de Atacama Kozan,-46.94661338,-72.1569849,Vallenar,20-08-1959,si
Fidus Investment Corporation,-45.46401685,-70.92528827,Camiña,29-06-1952,si
"Portola Pharmaceuticals, Inc.",-21.94825924,-74.05111571,Río Ibáñez,29-01-1952,si
Great Elm Capital Corp.,-46.91888967,-68.86531922,Colchane,23-06-2001,si
Cordillera - Tenardita,-47.84204942,-69.03536409,Colchane,23-10-1966,si
"Avenue Therapeutics, Inc.",-49.36704952,-69.43572153,Mejillones,01-05-2006,si
Pullalli,-40.15613517,-73.48525548,Casablanca,16-09-1982,si
Los Bronces,-20.63235417,-73.30770741,María Pinto,28-04-2010,si
"Pepsico, Inc.",-44.60997938,-74.83714509999999,Punta Arenas,01-04-2016,si
Candelaria,-50.71227996,-71.28340564,Freirina,24-10-1956,si
West Corporation,-33.60469188,-74.0102517,Los Vilos,25-11-2004,si
Pupunahue,-25.24011737,-72.81762993,Panguipulli,16-06-1979,si
Dollar General Corporation,-45.38138189,-70.64325644,María Elena,13-11-2012,si
Bright Scholar Education Holdings Limited,-32.29399007,-69.03379064,Huara,24-05-1988,si
"Zynerba Pharmaceuticals, Inc.",-46.27776541,-69.97186244,Mejillones,29-06-1968,si
CMP - Romeral,-35.48098221,-71.1905625,Coquimbo,10-07-1954,si
Pinatolca,-26.0446954,-74.04301221,Los Álamos,18-04-1951,si
Cohen & Steers Reit and Preferred Income Fund Inc,-23.51683606,-72.25654139,Punitaqui,08-05-1969,si
B.O.S. Better Online Solutions,-15.80399679,-70.97515952,Taltal,12-08-1962,si
Hamilton Lane Incorporated,-47.66448994,-73.42405483,Alto Biobío,23-03-1950,si
ENGlobal Corporation,-45.98702795,-71.43452191,Calama,12-02-1952,si
Incyte Corporation,-38.30897238,-71.89131409999999,Caldera,24-12-2002,si
"Westbury Bancorp, Inc.",-23.06057125,-71.79959903,Huasco,14-12-2014,si
"HD Supply Holdings, Inc.",-48.87088641,-69.69011616,Mejillones,07-01-2000,si
BRF S.A.,-17.40821544,-73.88095802,Talagante,04-08-1951,si
Zaldívar,-33.73365319,-70.20110685,Taltal,19-09-1958,si
"Aspen Technology, Inc.",-21.55807674,-68.4005989,Antofagasta,04-03-2014,si
"Entergy Louisiana, Inc.",-26.16436623,-70.02406051,Copiapó,19-04-2016,si
Independence Holding Company,-39.39264851,-70.93554426,San Pedro de Atacama,12-06-1987,si
"Midland States Bancorp, Inc.",-34.33874333,-70.15395928,Taltal,10-01-1998,si
Patriot National Bancorp Inc.,-53.41162037,-69.57491598,Tocopilla,11-11-1974,si
Talcuna,-38.66487599,-73.03103802,Paiguano,19-08-1961,si
"Blackhawk Network Holdings, Inc.",-45.02246855,-75.49329275,Punta Arenas,02-08-1978,si
Natl Westminster Pfd,-36.51659763,-73.05176744,Cabo de Hornos,21-12-1963,si
"AMC Entertainment Holdings, Inc.",-32.15450946,-71.67009816,Tierra Amarilla,17-10-2001,si
Salesforce.com Inc,-49.80974272,-73.15258443,Primavera,03-08-1976,si
"Ocular Therapeutix, Inc.",-18.20712344,-70.24368891,Huasco,30-06-1972,si
"Hawkins, Inc.",-18.95193054,-70.32171306,Chañaral,06-10-1987,si
Colico Sur,-52.941030000000005,-73.93599634,Tucapel,28-11-1987,si
El Peñón,-24.07753673,-71.66921793,Tocopilla,06-07-1994,si
CoreSite Realty Corporation,-17.62297702,-73.80370682,Porvenir,23-06-1963,si
Western Alliance Bancorporation,-46.43216631,-70.49138637,Mejillones,29-09-1993,si
Alliance National Municipal Income Fund Inc,-49.06597315,-68.1586654,Camiña,09-11-1967,si
iShares 20+ Year Treasury Bond ETF,-51.14222733,-70.51192856,Tierra Amarilla,10-05-1990,si
Envision Healthcare Corporation,-32.25602205,-73.70938746,Río Hurtado,19-11-1974,si
SQM - Pampa Blanca,-54.76566051,-70.09450066,Tocopilla,11-10-1996,si
Lomas Bayas,-40.93401642,-70.91297411,San Pedro de Atacama,06-05-1954,si
"FairPoint Communications, Inc.",-51.34889643,-71.7560449,Andacollo,30-12-1992,si
Arlington Asset Investment Corp,-52.192600899999995,-70.02288822,Ollagüe,25-08-1997,si
Andina,-24.32664962,-73.57833754,Villa Alemana,22-07-1961,si
Celite - Carol,-45.99004483,-69.84882794,Camarones,22-05-2001,si
Tekla Healthcare Opportunies Fund,-32.62408895,-69.7066942,Tierra Amarilla,28-12-2008,si
American Homes 4 Rent,-36.60213838,-69.67858338,Calama,12-09-1963,si
"support.com, Inc.",-43.05898659,-68.61561527,Alto Hospicio,01-11-2000,si
Nuveen Floating Rate Income Fund,-16.75485413,-71.16848181,Vallenar,12-07-1966,si
"Hurco Companies, Inc.",-53.75776763,-71.28707576,Copiapó,03-01-2001,si
"Littelfuse, Inc.",-38.5166006,-71.30822182,Salamanca,05-12-1969,si
Kraton Corporation,-46.75479779,-71.15166944,Ollagüe,19-06-1989,si
Applied DNA Sciences Inc,-39.91924724,-73.30630723,Canela,08-12-1963,si
Blackstone GSO Long Short Credit Income Fund,-53.59601847,-74.48174488,Puchuncaví,27-01-1984,si
"Chegg, Inc.",-40.36010157,-72.97417772,Casablanca,04-01-2015,si
"Vectrus, Inc.",-49.70049363,-68.28510012,Camiña,19-09-1958,si
Yahoo! Inc.,-50.86661529,-70.95263054,Ollagüe,11-01-1961,si
CVS Health Corporation,-50.66032276,-69.03531431,Pozo Almonte,08-08-1960,si
"Commerce Bancshares, Inc.",-47.76020288,-70.15008743,María Elena,20-04-2016,si
"Sarepta Therapeutics, Inc.",-29.27055799,-70.38725328,Freirina,07-01-1976,si
Romeral,-17.70796623,-73.70450394,Talagante,18-05-1973,si
Texas Pacific Land Trust,-35.32999827,-72.00211361,María Elena,18-04-1961,si
Esterline Technologies Corporation,-37.71621836,-72.31495104,Caldera,15-03-1984,si
Silicon Motion Technology Corporation,-32.76764967,-71.47415533,Sierra Gorda,17-11-2010,si
Ceragon Networks Ltd.,-39.56394284,-69.75223962,Caldera,16-05-1987,si
"MiMedx Group, Inc",-51.55577341,-68.68117893,Pozo Almonte,22-07-1954,si
La Pepa,-51.95141748,-71.22207609,Tierra Amarilla,21-07-2006,si
Jerónimo,-31.77103906,-71.45606195,Tierra Amarilla,09-01-1976,si
Sierra Gorda,-29.9037532,-69.20477898,San Pedro de Atacama,16-09-1985,si
"Waste Management, Inc.",-38.91178905,-71.73239195,Curanilahue,28-11-1997,si
Andes Travertine,-19.09271584,-69.47178711,Tocopilla,31-10-1992,si
Eagle Bulk Shipping Inc.,-39.69256421,-73.14064804,Canela,17-11-1987,si
SQM - Nueva Victoria,-54.73005883,-70.54483001,Alto Hospicio,21-08-1993,si
"Dupont Fabros Technology, Inc.",-24.76562075,-73.72311695,Villa Alemana,02-04-1991,si
Brookfield Global Listed Infrastructure Income Fund,-54.90481689,-72.99829869,Vicuña,06-05-2013,si
"Impax Laboratories, Inc.",-48.59547852,-73.78895577,Alto Biobío,04-08-2004,si
"Everspin Technologies, Inc.",-39.18346766,-67.82215525,Arica,28-06-1994,si
Ministro Hales,-20.18310356,-69.91162467,Calama,27-04-1980,si
SQM - Yumbes,-46.80526688,-71.17699473,Mejillones,11-08-1978,si
Nabriva Therapeutics AG,-44.5237386,-73.67953291,San Rosendo,02-03-1986,si
"OraSure Technologies, Inc.",-22.99538727,-69.27296898,Iquique,22-03-1966,si
Radomiro Tomic,-33.39540661,-70.61147918,Sierra Gorda,27-10-1981,si
PrimeEnergy Corporation,-51.91507329,-70.82429759,Freirina,05-07-1966,si
TICC Capital Corp.,-46.65052586,-69.74814838,Mejillones,31-05-1956,si
"Pinnacle Financial Partners, Inc.",-32.01134156,-69.05264329,Huara,02-11-1980,si
"HCA Healthcare, Inc.",-43.29197132,-71.95914899,Antofagasta,30-08-1965,si
Kopin Corporation,-50.06681348,-71.288365,Alto del Carmen,24-12-1978,si
"Commercial Vehicle Group, Inc.",-35.62259333,-71.60991232,María Elena,08-05-1991,si
Can Can,-49.83601833,-71.12592996,Alto del Carmen,10-04-2016,si
"The Travelers Companies, Inc.",-29.38267045,-70.83420453,Freirina,06-11-1980,si
BlackRock Municipal Target Term Trust Inc. (The),-39.21827739,-71.02138421,San Pedro de Atacama,31-03-1955,si
Quebrada Blanca,-50.57327772,-68.91799663,Pozo Almonte,17-01-1987,si
CMP - Cerro Negro Norte,-30.27265127,-71.39812945,Freirina,26-09-1961,si
Nuveen Energy MLP Total Return Fund,-52.81861719,-74.37026443,Puchuncaví,16-02-1972,si
Global Partner Acquisition Corp.,-50.89461916,-70.77945522,Colchane,06-02-2009,si
3M Company,-47.32142188,-72.89968237,El Monte,05-05-1950,si
La Productora,-45.92687329,-71.44643519,Diego de Almagro,26-12-2018,si
Cerro Imán,-39.91479342,-70.71904433,Caldera,12-08-1960,si
SQM - María Elena,-30.72064609,-69.19189683,Ollagüe,08-02-1961,si
"Biocept, Inc.",-34.82049098,-73.76922988,Timaukel,13-08-1994,si
Cummins Inc.,-29.09117012,-68.89030305,San Pedro de Atacama,01-05-1956,si
"Arista Networks, Inc.",-47.95224885,-72.625789,Vallenar,24-09-1972,si
"ILG, Inc",-42.40115957,-69.27629579,San Pedro de Atacama,24-04-1983,si
Lambert,-52.85135542,-71.64256207,Andacollo,05-07-1960,si
Caleta El Cobre,-35.86420182,-70.51754931,Calama,01-02-1984,si
Fertón,-47.48875104,-72.10622211,El Monte,03-06-1955,si
Moog Inc.,-18.50708785,-70.02931389,Huasco,28-11-1967,si
"LM Funding America, Inc.",-37.42139201,-74.82919835,Río Bueno,14-11-1954,si
"PrivateBancorp, Inc.",-34.02539502,-69.21071103,Sierra Gorda,05-09-1981,si
Coirón,-22.98723402,-73.14125365,Río Verde,05-10-1985,si
Microsemi Corporation,-50.65226007,-72.76420235,Laguna Blanca,17-03-1989,si
Zion Oil & Gas Inc,-34.75875536,-71.91521087,Illapel,22-12-1972,si
"Western Refining Logistics, LP",-49.9530586,-73.42275068,San Pedro,20-03-1966,si
"Sierra Oncology, Inc.",-42.85190241,-71.80551464,Antofagasta,22-08-1994,si
Dos Amigos,-54.30040972,-71.1931064,Freirina,01-08-1973,si
Abeona Therapeutics Inc.,-46.722444200000005,-70.81052512,Calama,18-02-1969,si
Merus Labs International Inc.,-24.61575569,-72.93952133,Tocopilla,05-10-1976,si
First Trust Multi-Asset Diversified Income Index Fund,-54.29723561,-70.04511056,Tocopilla,07-04-2007,si
Imax Corporation,-53.1657583,-71.94698392,Freirina,01-08-1968,si
"H&R Block, Inc.",-30.42590561,-68.63653997,Taltal,11-06-1986,si
Northrop Grumman Corporation,-36.6766771,-73.89200318,Concón,16-04-1951,si
Diana Shipping inc.,-45.48591239,-70.96372918,Camarones,25-02-2010,si
"Spark Energy, Inc.",-18.22174509,-69.20838488,Pozo Almonte,01-07-1987,si
